[
  {
     "Nation":"Armenia"
    ,"City":"Yerevan"
    ,"Library":"The Mesrop Mashtots Institute of Ancient Manuscripts (Matenadaran)"
    ,"lat":40.19196
    ,"lng":44.520811
    ,"Quantity":"Many (Between 50 and 100 digitized manuscripts)"
    ,"Website":"http://www.armenica.org/cgi-bin/armenica.cgi?778473216182650=2=l"
  },
  {
     "Nation":"Australia"
    ,"City":"Bundoora"
    ,"Library":"La Trobe University Library"
    ,"lat":-37.72165
    ,"lng":145.046581
    ,"Quantity":"Few ( < 10 digitized manuscripts)"
    ,"Website":"http://www.lib.latrobe.edu.au/MMDB/localmss.htm"
  },
  {
     "Nation":"Australia"
    ,"City":"Canberra"
    ,"Library":"National Library of Australia"
    ,"lat":-35.300912
    ,"lng":149.134078
    ,"Quantity":"Few ( < 10 digitized manuscripts)"
    ,"Website":"http://www.nla.gov.au/apps/cdview/?pi=nla.ms-ms1097"
  },
  {
     "Nation":"Australia"
    ,"City":"Adelaide"
    ,"Library":"State Library of South Australia"
    ,"lat":-34.919357
    ,"lng":138.601693
    ,"Quantity":"Few (< 10 digitized manuscripts)"
    ,"Website":"http://www.slsa.sa.gov.au/antiphonal/"
  },
  {
     "Nation":"Australia"
    ,"City":"Melbourne"
    ,"Library":"State Library of Victoria"
    ,"lat":-37.80988
    ,"lng":144.964844
    ,"Quantity":"Unknown"
    ,"Website":"http://gallery.slv.vic.gov.au/medieval-imagination"
  },
  {
     "Nation":"Austria"
    ,"City":"Vienna"
    ,"Library":"Osterreichischen Nationalbibliothek"
    ,"lat":48.206111
    ,"lng":16.366389
    ,"Quantity":"Thousands (more than 1000 digitized manuscripts)"
    ,"Website":"http://aleph.onb.ac.at/F/?func=find-c&ccl_term=(WSG=han)AND(WUR=digitalisat)&local_base=ONB06"
  },
  {
     "Nation":"Austria"
    ,"City":"Graz"
    ,"Library":"Universitatsbibliothek Karl-Franzens"
    ,"lat":47.078064
    ,"lng":15.450868
    ,"Quantity":"Unknown"
    ,"Website":"http://143.50.26.142/digbib/handschriften/Ms.0001-0199/Ms.0003/index.html"
  },
  {
     "Nation":"Belgium"
    ,"City":"Brussels"
    ,"Library":"Koninklijke Bibliotheek van Belgie, Bibliotheque royale de Belgique"
    ,"lat":50.843333
    ,"lng":4.356389
    ,"Quantity":"Unknown"
    ,"Website":"http://belgica.kbr.be/fr/coll/ms/bibliotecaCarolina_fr.html"
  },
  {
     "Nation":"Belgium"
    ,"City":"Liege"
    ,"Library":"Bibliotheques de l'Universite de Liege"
    ,"lat":50.640306
    ,"lng":5.575766
    ,"Quantity":"Some (between 10 and 50 digitized manuscripts)"
    ,"Website":"http://lib.ulg.ac.be/fr/content/du-pep-s-l-ulg-49-manuscrits-medievaux-et-renaissants-numerises"
  },
  {
     "Nation":"Belgium"
    ,"City":"Gent"
    ,"Library":"Universiteitsbibliotheek Gent"
    ,"lat":51.045201
    ,"lng":3.725216
    ,"Quantity":"More than half-thousand digitized manuscripts (between 500 and 1000)"
    ,"Website":"http://adore.ugent.be/?q=manuscript&submit=search&confirm_search=1&language=en"
  },
  {
     "Nation":"Belgium"
    ,"City":"Leuven"
    ,"Library":"Universiteitsbibliotheek KU Leuven"
    ,"lat":50.859692
    ,"lng":4.682045
    ,"Quantity":"More than half-thousand digitized manuscripts (between 500 and 1000)"
    ,"Website":"http://iterdigitalicum.bib.kuleuven.be/schatkamer/items/browse?type=Still+Image"
  },
  {
     "Nation":"Bulgaria"
    ,"City":"Sofia"
    ,"Library":"National Library of Bulgaria"
    ,"lat":42.694723
    ,"lng":23.335923
    ,"Quantity":"Unknown"
    ,"Website":"http://www.nationallibrary.bg/cgi-bin/e-cms/vis/vis.pl?s=001&p=0192&g="
  },
  {
     "Nation":"Canada"
    ,"City":"Saanich"
    ,"Library":"McPherson Library"
    ,"lat":48.459263
    ,"lng":-123.376722
    ,"Quantity":"Few ( < 10 digitized manuscripts)"
    ,"Website":"http://www.uvic.ca/library/featured/collections/manuscripts/index.php"
  },
  {
     "Nation":"Canada"
    ,"City":"Toronto"
    ,"Library":"Thomas Fisher Rare Book Library"
    ,"lat":43.664088
    ,"lng":-79.39888
    ,"Quantity":"Some (between 10 and 50 digitized manuscripts)"
    ,"Website":"https://fisher.library.utoronto.ca/resources/digitized-manuscripts"
  },
  {
     "Nation":"Czech Republic"
    ,"City":"Olomouc"
    ,"Library":"Research Library in Olomouc"
    ,"lat":49.593495
    ,"lng":17.246814
    ,"Quantity":"Many (Between 50 and 100 digitized manuscripts)"
    ,"Website":"http://dig.vkol.cz/"
  },
  {
     "Nation":"Denmark"
    ,"City":"Copenhagen"
    ,"Library":"Det Kongelige Bibliotek"
    ,"lat":55.67317
    ,"lng":12.582088
    ,"Quantity":"Unknown"
    ,"Website":"http://www.kb.dk/en/nb/materialer/haandskrifter/HA/e-mss/e_mss.html"
  },
  {
     "Nation":"England"
    ,"City":"London"
    ,"Library":"The British Library Digitised Manuscripts"
    ,"lat":51.529222
    ,"lng":-0.126753
    ,"Quantity":"Hundreds (between 100 and 500 digitized manuscripts)"
    ,"Website":"http://www.bl.uk/manuscripts/"
  },
  {
     "Nation":"England"
    ,"City":"Oxford"
    ,"Library":"Balliol College Special Collections"
    ,"lat":51.756366
    ,"lng":-1.247796
    ,"Quantity":"Many (Between 50 and 100 digitized manuscripts)"
    ,"Website":"https://www.flickr.com/photos/balliolarchivist/collections/72157625091983501/"
  },
  {
     "Nation":"England"
    ,"City":"Oxford"
    ,"Library":"The Bodleian Library"
    ,"lat":51.754061
    ,"lng":-1.254051
    ,"Quantity":"Unknown"
    ,"Website":"http://digital.bodleian.ox.ac.uk/"
  },
  {
     "Nation":"England"
    ,"City":"Manchester"
    ,"Library":"University of Manchester Library: The John Rylands Library"
    ,"lat":53.480274
    ,"lng":-2.24876
    ,"Quantity":"Unknown"
    ,"Website":"http://enriqueta.man.ac.uk/luna/servlet/"
  },
  {
     "Nation":"England"
    ,"City":"Cambridge"
    ,"Library":"Wren Library, Trinity College"
    ,"lat":52.207018
    ,"lng":0.114895
    ,"Quantity":"Unknown"
    ,"Website":"http://sites.trin.cam.ac.uk/james/browse.php?show=virtual_listing"
  },
  {
     "Nation":"England"
    ,"City":"Cambridge"
    ,"Library":"Parker Library, Corpus Christi College"
    ,"lat":52.205068
    ,"lng":0.10776
    ,"Quantity":"Hundreds (between 100 and 500 digitized manuscripts)"
    ,"Website":"https://parker.stanford.edu/parker/actions/browse.do?&category=ms_no&section=All"
  },
  {
     "Nation":"England"
    ,"City":"Lichfield"
    ,"Library":"Lichfield Cathedral Library"
    ,"lat":52.685395
    ,"lng":-1.830164
    ,"Quantity":"Few ( < 10 digitized manuscripts)"
    ,"Website":"https://lichfield.as.uky.edu/"
  },
  {
     "Nation":"England"
    ,"City":"Cambridge"
    ,"Library":"The Fitzwilliam Museum"
    ,"lat":52.199534
    ,"lng":0.119944
    ,"Quantity":"Hundreds (between 100 and 500 digitized manuscripts)"
    ,"Website":"http://webapps.fitzmuseum.cam.ac.uk/explorer/index.php?qu=manuscript"
  },
  {
     "Nation":"Finland"
    ,"City":"Helsinki"
    ,"Library":"National Library of Finland"
    ,"lat":60.170351
    ,"lng":24.95068
    ,"Quantity":"Unknown"
    ,"Website":"http://fragmenta.kansalliskirjasto.fi/"
  },
  {
     "Nation":"Finland"
    ,"City":"Turku"
    ,"Library":"Abo Akademis bibliotek"
    ,"lat":60.452393
    ,"lng":22.278464
    ,"Quantity":"Few ( < 10 digitized manuscripts)"
    ,"Website":"http://bibbild.abo.fi/hereditas/tammela/"
  },
  {
     "Nation":"France"
    ,"City":"Douai"
    ,"Library":"Bibliotheque municipale"
    ,"lat":50.367617
    ,"lng":3.073704
    ,"Quantity":"More than half-thousand digitized manuscripts (between 500 and 1000)"
    ,"Website":"http://bvmm.irht.cnrs.fr/resultRecherche/resultRecherche.php?NOM_VILLE=DOUAI&TOUT=true"
  },
  {
     "Nation":"France"
    ,"City":"Reims"
    ,"Library":"Bibliotheque municipale"
    ,"lat":49.258269
    ,"lng":4.031696
    ,"Quantity":"More than half-thousand digitized manuscripts (between 500 and 1000)"
    ,"Website":"http://bvmm.irht.cnrs.fr/resultRecherche/resultRecherche.php?rechercheRapide=Reims&newSearch=1"
  },
  {
     "Nation":"France"
    ,"City":"Angers"
    ,"Library":"Bibliotheque municipale"
    ,"lat":47.474141
    ,"lng":-0.565097
    ,"Quantity":"Hundreds (between 100 and 500 digitized manuscripts)"
    ,"Website":"http://bvmm.irht.cnrs.fr/resultRecherche/resultRecherche.php?rechercheRapide=Angers,+Biblioth%C3%A8que+municipale&newSearch=1"
  },
  {
     "Nation":"France"
    ,"City":"Lyon"
    ,"Library":"Bibliotheque municipale"
    ,"lat":45.737075
    ,"lng":4.867983
    ,"Quantity":"Hundreds (between 100 and 500 digitized manuscripts)"
    ,"Website":"http://bvmm.irht.cnrs.fr/resultRecherche/resultRecherche.php?NOM_VILLE=LYON&TOUT=true"
  },
  {
     "Nation":"France"
    ,"City":"Toulouse"
    ,"Library":"Bibliotheque municipale"
    ,"lat":43.602639
    ,"lng":1.425307
    ,"Quantity":"Hundreds (between 100 and 500 digitized manuscripts)"
    ,"Website":"http://bvmm.irht.cnrs.fr/resultRecherche/resultRecherche.php?NOM_VILLE=TOULOUSE&TOUT=true"
  },
  {
     "Nation":"France"
    ,"City":"Paris"
    ,"Library":"Bibliotheque Sainte-Genevieve"
    ,"lat":48.848475
    ,"lng":2.345826
    ,"Quantity":"Hundreds (between 100 and 500 digitized manuscripts)"
    ,"Website":"http://bvmm.irht.cnrs.fr/resultRecherche/resultRecherche.php?rechercheRapide=Biblioth%C3%A8que+Sainte-Genevi%C3%A8ve&newSearch=1"
  },
  {
     "Nation":"France"
    ,"City":"Valenciennes"
    ,"Library":"Bibliotheque municipale"
    ,"lat":50.359679
    ,"lng":3.519563
    ,"Quantity":"Hundreds (between 100 and 500 digitized manuscripts)"
    ,"Website":"http://bvmm.irht.cnrs.fr/resultRecherche/resultRecherche.php?NOM_VILLE=VALENCIENNES&TOUT=true"
  },
  {
     "Nation":"France"
    ,"City":"Amiens"
    ,"Library":"Bibliotheque municipale"
    ,"lat":49.898005
    ,"lng":2.303637
    ,"Quantity":"Hundreds (between 100 and 500 digitized manuscripts)"
    ,"Website":"http://bvmm.irht.cnrs.fr/resultRecherche/resultRecherche.php?NOM_VILLE=AMIENS&TOUT=true"
  },
  {
     "Nation":"France"
    ,"City":"Tours"
    ,"Library":"Bibliotheque municipale"
    ,"lat":47.394144
    ,"lng":0.68484
    ,"Quantity":"Hundreds (between 100 and 500 digitized manuscripts)"
    ,"Website":"http://bvmm.irht.cnrs.fr/resultRecherche/resultRecherche.php?rechercheRapide=Tours&newSearch=1"
  },
  {
     "Nation":"France"
    ,"City":"Montpellier"
    ,"Library":"Bibliotheque interuniversitaire"
    ,"lat":43.604722
    ,"lng":3.898679
    ,"Quantity":"Hundreds (between 100 and 500 digitized manuscripts)"
    ,"Website":"http://bvmm.irht.cnrs.fr/resultRecherche/resultRecherche.php?NOM_VILLE=MONTPELLIER&TOUT=true"
  },
  {
     "Nation":"France"
    ,"City":"Paris"
    ,"Library":"Bibliotheque de la Sorbonne"
    ,"lat":48.849167
    ,"lng":2.34346
    ,"Quantity":"Hundreds (between 100 and 500 digitized manuscripts)"
    ,"Website":"http://bvmm.irht.cnrs.fr/resultRecherche/resultRecherche.php?rechercheRapide=Biblioth%C3%A8que+de+la+Sorbonne&newSearch=1"
  },
  {
     "Nation":"France"
    ,"City":"Strasbourg"
    ,"Library":"Bibliotheque nationale et universitaire"
    ,"lat":48.592349
    ,"lng":7.69754
    ,"Quantity":"Hundreds (between 100 and 500 digitized manuscripts)"
    ,"Website":"http://bvmm.irht.cnrs.fr/resultRecherche/resultRecherche.php?rechercheRapide=Strasbourg,+nationale&newSearch=1"
  },
  {
     "Nation":"France"
    ,"City":"Avignon"
    ,"Library":"Bibliotheque municipale"
    ,"lat":43.946098
    ,"lng":4.80696
    ,"Quantity":"Hundreds (between 100 and 500 digitized manuscripts)"
    ,"Website":"http://bvmm.irht.cnrs.fr/resultRecherche/resultRecherche.php?NOM_VILLE=AVIGNON&TOUT=true"
  },
  {
     "Nation":"France"
    ,"City":"Vendome"
    ,"Library":"Bibliotheque municipale"
    ,"lat":47.792551
    ,"lng":1.065343
    ,"Quantity":"Hundreds (between 100 and 500 digitized manuscripts)"
    ,"Website":"http://bvmm.irht.cnrs.fr/resultRecherche/resultRecherche.php?rechercheRapide=Vendome&newSearch=1"
  },
  {
     "Nation":"France"
    ,"City":"Paris"
    ,"Library":"Bibliotheque de l'Ecole des Beaux-Arts"
    ,"lat":48.855186
    ,"lng":2.359384
    ,"Quantity":"Hundreds (between 100 and 500 digitized manuscripts)"
    ,"Website":"http://bvmm.irht.cnrs.fr/resultRecherche/resultRecherche.php?rechercheRapide=Biblioth%C3%A8que+de+l%27Ecole+des+Beaux-Arts&newSearch=1"
  },
  {
     "Nation":"France"
    ,"City":"Besancon"
    ,"Library":"Bibliotheque municipale"
    ,"lat":47.238963
    ,"lng":6.024054
    ,"Quantity":"Hundreds (between 100 and 500 digitized manuscripts)"
    ,"Website":"http://bvmm.irht.cnrs.fr/resultRecherche/resultRecherche.php?rechercheRapide=Besancon&newSearch=1"
  },
  {
     "Nation":"France"
    ,"City":"Orleans"
    ,"Library":"Bibliotheque municipale"
    ,"lat":47.902967
    ,"lng":1.909251
    ,"Quantity":"Hundreds (between 100 and 500 digitized manuscripts)"
    ,"Website":"http://bvmm.irht.cnrs.fr/resultRecherche/resultRecherche.php?rechercheRapide=Orleans,+Biblioth%C3%A8que+municipale&newSearch=1"
  },
  {
     "Nation":"France"
    ,"City":"Avranches"
    ,"Library":"Bibliotheque municipale"
    ,"lat":48.686825
    ,"lng":-1.36166
    ,"Quantity":"Hundreds (between 100 and 500 digitized manuscripts)"
    ,"Website":"http://bvmm.irht.cnrs.fr/resultRecherche/resultRecherche.php?rechercheRapide=Avranches&newSearch=1"
  },
  {
     "Nation":"France"
    ,"City":"Carpentras"
    ,"Library":"Bibliotheque municipale"
    ,"lat":44.05554
    ,"lng":5.048722
    ,"Quantity":"Hundreds (between 100 and 500 digitized manuscripts)"
    ,"Website":"http://bvmm.irht.cnrs.fr/resultRecherche/resultRecherche.php?rechercheRapide=Carpentras&newSearch=1"
  },
  {
     "Nation":"France"
    ,"City":"Mans (Le)"
    ,"Library":"Bibliotheque municipale"
    ,"lat":48.006116
    ,"lng":0.199556
    ,"Quantity":"Hundreds (between 100 and 500 digitized manuscripts)"
    ,"Website":"http://bvmm.irht.cnrs.fr/resultRecherche/resultRecherche.php?rechercheRapide=Mans+(Le)&newSearch=1"
  },
  {
     "Nation":"France"
    ,"City":"Caen"
    ,"Library":"Bibliotheque municipale"
    ,"lat":49.182725
    ,"lng":-0.370679
    ,"Quantity":"Hundreds (between 100 and 500 digitized manuscripts)"
    ,"Website":"http://bvmm.irht.cnrs.fr/resultRecherche/resultRecherche.php?rechercheRapide=Caen,+Biblioth%C3%A8que+municipale&newSearch=1"
  },
  {
     "Nation":"France"
    ,"City":"Rouen"
    ,"Library":"Bibliotheque municipale"
    ,"lat":49.443844
    ,"lng":1.106998
    ,"Quantity":"Hundreds (between 100 and 500 digitized manuscripts)"
    ,"Website":"http://bvmm.irht.cnrs.fr/resultRecherche/resultRecherche.php?NOM_VILLE=ROUEN&TOUT=true"
  },
  {
     "Nation":"France"
    ,"City":"Autun"
    ,"Library":"Bibliotheque municipale"
    ,"lat":46.950914
    ,"lng":4.301565
    ,"Quantity":"Hundreds (between 100 and 500 digitized manuscripts)"
    ,"Website":"http://bvmm.irht.cnrs.fr/resultRecherche/resultRecherche.php?rechercheRapide=Autun&newSearch=1"
  },
  {
     "Nation":"France"
    ,"City":"Aix-En-Provence"
    ,"Library":"Bibliotheque municipale"
    ,"lat":43.523961
    ,"lng":439458
    ,"Quantity":"Hundreds (between 100 and 500 digitized manuscripts)"
    ,"Website":"http://bvmm.irht.cnrs.fr/resultRecherche/resultRecherche.php?rechercheRapide=Aix-En-Provence&newSearch=1"
  },
  {
     "Nation":"France"
    ,"City":"Bourges"
    ,"Library":"Bibliotheque municipale"
    ,"lat":47.080981
    ,"lng":2.398782
    ,"Quantity":"Many (Between 50 and 100 digitized manuscripts)"
    ,"Website":"http://bvmm.irht.cnrs.fr/resultRecherche/resultRecherche.php?rechercheRapide=Bourges&newSearch=1"
  },
  {
     "Nation":"France"
    ,"City":"Alencon"
    ,"Library":"Bibliotheque municipale"
    ,"lat":48.431603
    ,"lng":0.083669
    ,"Quantity":"Many (Between 50 and 100 digitized manuscripts)"
    ,"Website":"http://bvmm.irht.cnrs.fr/resultRecherche/resultRecherche.php?rechercheRapide=Alencon&newSearch=1"
  },
  {
     "Nation":"France"
    ,"City":"Paris"
    ,"Library":"Musee de Cluny"
    ,"lat":48.850455
    ,"lng":2.344074
    ,"Quantity":"Many (Between 50 and 100 digitized manuscripts)"
    ,"Website":"http://bvmm.irht.cnrs.fr/resultRecherche/resultRecherche.php?NOM_VILLE=PARIS&TOUT=true"
  },
  {
     "Nation":"France"
    ,"City":"Colmar"
    ,"Library":"Bibliotheque municipale"
    ,"lat":48.07784
    ,"lng":7.358512
    ,"Quantity":"Many (Between 50 and 100 digitized manuscripts)"
    ,"Website":"http://bvmm.irht.cnrs.fr/resultRecherche/resultRecherche.php?rechercheRapide=Colmar&newSearch=1"
  },
  {
     "Nation":"France"
    ,"City":"Beaune"
    ,"Library":"Bibliotheque municipale"
    ,"lat":47.02604
    ,"lng":4.840004
    ,"Quantity":"Many (Between 50 and 100 digitized manuscripts)"
    ,"Website":"http://bvmm.irht.cnrs.fr/resultRecherche/resultRecherche.php?rechercheRapide=Beaune&newSearch=1"
  },
  {
     "Nation":"France"
    ,"City":"Marseille"
    ,"Library":"Bibliotheque municipale"
    ,"lat":43.285586
    ,"lng":5.384112
    ,"Quantity":"Many (Between 50 and 100 digitized manuscripts)"
    ,"Website":"http://bvmm.irht.cnrs.fr/resultRecherche/resultRecherche.php?NOM_VILLE=MARSEILLE&TOUT=true"
  },
  {
     "Nation":"France"
    ,"City":"Albi"
    ,"Library":"Bibliotheque municipale"
    ,"lat":43.92686
    ,"lng":2.146343
    ,"Quantity":"Many (Between 50 and 100 digitized manuscripts)"
    ,"Website":"http://bvmm.irht.cnrs.fr/resultRecherche/resultRecherche.php?rechercheRapide=Albi&newSearch=1"
  },
  {
     "Nation":"France"
    ,"City":"Melun"
    ,"Library":"Bibliotheque municipale"
    ,"lat":48.53639
    ,"lng":2.659037
    ,"Quantity":"Some (between 10 and 50 digitized manuscripts)"
    ,"Website":"http://bvmm.irht.cnrs.fr/resultRecherche/resultRecherche.php?rechercheRapide=MELUN,+Biblioth%C3%A8que+municipale&newSearch=1"
  },
  {
     "Nation":"France"
    ,"City":"Arras"
    ,"Library":"Bibliotheque municipale"
    ,"lat":50.281989
    ,"lng":2.784427
    ,"Quantity":"Some (between 10 and 50 digitized manuscripts)"
    ,"Website":"http://bvmm.irht.cnrs.fr/resultRecherche/resultRecherche.php?NOM_VILLE=ARRAS&TOUT=true"
  },
  {
     "Nation":"France"
    ,"City":"Chaumont"
    ,"Library":"Bibliotheque municipale"
    ,"lat":48.113726
    ,"lng":5.139256
    ,"Quantity":"Some (between 10 and 50 digitized manuscripts)"
    ,"Website":"http://bvmm.irht.cnrs.fr/resultRecherche/resultRecherche.php?rechercheRapide=Chaumont&newSearch=1"
  },
  {
     "Nation":"France"
    ,"City":"Chartres"
    ,"Library":"Bibliotheque municipale"
    ,"lat":48.443837
    ,"lng":1.489012
    ,"Quantity":"Some (between 10 and 50 digitized manuscripts)"
    ,"Website":"http://bvmm.irht.cnrs.fr/resultRecherche/resultRecherche.php?rechercheRapide=Chartres&newSearch=1"
  },
  {
     "Nation":"France"
    ,"City":"Dole"
    ,"Library":"Bibliotheque municipale"
    ,"lat":47.095382
    ,"lng":5.49081
    ,"Quantity":"Some (between 10 and 50 digitized manuscripts)"
    ,"Website":"http://bvmm.irht.cnrs.fr/resultRecherche/resultRecherche.php?rechercheRapide=Dole&newSearch=1"
  },
  {
     "Nation":"France"
    ,"City":"Chalons-En-Champagne"
    ,"Library":"Bibliotheque municipale"
    ,"lat":48.956466
    ,"lng":4.363073
    ,"Quantity":"Some (between 10 and 50 digitized manuscripts)"
    ,"Website":"http://bvmm.irht.cnrs.fr/resultRecherche/resultRecherche.php?rechercheRapide=Chalons-En-Champagne&newSearch=1"
  },
  {
     "Nation":"France"
    ,"City":"Solesmes"
    ,"Library":"Bibliotheque de l'abbaye / Saint-Pierre; Bibliotheque municipale"
    ,"lat":50.185436
    ,"lng":3.497579
    ,"Quantity":"Some (between 10 and 50 digitized manuscripts)"
    ,"Website":"http://bvmm.irht.cnrs.fr/resultRecherche/resultRecherche.php?NOM_VILLE=SOLESMES&TOUT=true"
  },
  {
     "Nation":"France"
    ,"City":"Abbeville"
    ,"Library":"Bibliotheque municipale"
    ,"lat":50.108528
    ,"lng":1.834584
    ,"Quantity":"Some (between 10 and 50 digitized manuscripts)"
    ,"Website":"http://bvmm.irht.cnrs.fr/resultRecherche/resultRecherche.php?NOM_VILLE=ABBEVILLE&TOUT=true"
  },
  {
     "Nation":"France"
    ,"City":"Rodez"
    ,"Library":"Bibliotheque municipale"
    ,"lat":44.349389
    ,"lng":2.575986
    ,"Quantity":"Some (between 10 and 50 digitized manuscripts)"
    ,"Website":"http://bvmm.irht.cnrs.fr/resultRecherche/resultRecherche.php?rechercheRapide=Rodez,+Biblioth%C3%A8que+municipale&newSearch=1"
  },
  {
     "Nation":"France"
    ,"City":"Rodez"
    ,"Library":"Archives diocesaines"
    ,"lat":44.347975
    ,"lng":2.57439
    ,"Quantity":"Some (between 10 and 50 digitized manuscripts)"
    ,"Website":"http://bvmm.irht.cnrs.fr/resultRecherche/resultRecherche.php?rechercheRapide=Rodez,+Archives+dioc%C3%A9saines&newSearch=1"
  },
  {
     "Nation":"France"
    ,"City":"Montauban"
    ,"Library":"Archives departementales de Tarn-et-Garonne"
    ,"lat":44.022732
    ,"lng":1.347637
    ,"Quantity":"Some (between 10 and 50 digitized manuscripts)"
    ,"Website":"http://bvmm.irht.cnrs.fr/resultRecherche/resultRecherche.php?NOM_VILLE=MONTAUBAN&TOUT=true"
  },
  {
     "Nation":"France"
    ,"City":"Provins"
    ,"Library":"Bibliotheque municipale"
    ,"lat":48.558387
    ,"lng":3.298778
    ,"Quantity":"Some (between 10 and 50 digitized manuscripts)"
    ,"Website":"http://bvmm.irht.cnrs.fr/resultRecherche/resultRecherche.php?NOM_VILLE=PROVINS&TOUT=true"
  },
  {
     "Nation":"France"
    ,"City":"Chambery"
    ,"Library":"Bibliotheque municipale"
    ,"lat":45.596794
    ,"lng":5.915154
    ,"Quantity":"Some (between 10 and 50 digitized manuscripts)"
    ,"Website":"http://bvmm.irht.cnrs.fr/resultRecherche/resultRecherche.php?NOM_VILLE=CHAMBERY&TOUT=true"
  },
  {
     "Nation":"France"
    ,"City":"Auch"
    ,"Library":"Bibliotheque municipale"
    ,"lat":43.646288
    ,"lng":0.584043
    ,"Quantity":"Some (between 10 and 50 digitized manuscripts)"
    ,"Website":"http://bvmm.irht.cnrs.fr/resultRecherche/resultRecherche.php?NOM_VILLE=AUCH&TOUT=true"
  },
  {
     "Nation":"France"
    ,"City":"Nice"
    ,"Library":"Bibliotheque municipale"
    ,"lat":43.701493
    ,"lng":7.278586
    ,"Quantity":"Some (between 10 and 50 digitized manuscripts)"
    ,"Website":"http://bvmm.irht.cnrs.fr/resultRecherche/resultRecherche.php?NOM_VILLE=NICE&TOUT=true"
  },
  {
     "Nation":"France"
    ,"City":"Valognes"
    ,"Library":"Bibliotheque municipale"
    ,"lat":49.507654
    ,"lng":-1.473881
    ,"Quantity":"Some (between 10 and 50 digitized manuscripts)"
    ,"Website":"http://bvmm.irht.cnrs.fr/resultRecherche/resultRecherche.php?NOM_VILLE=VALOGNES&TOUT=true"
  },
  {
     "Nation":"France"
    ,"City":"Rennes"
    ,"Library":"Bibliotheque de Rennes Metropole"
    ,"lat":48.108316
    ,"lng":-1.676975
    ,"Quantity":"Some (between 10 and 50 digitized manuscripts)"
    ,"Website":"http://www.tablettes-rennaises.fr/app/photopro.sk/rennes/?"
  },
  {
     "Nation":"France"
    ,"City":"Verdun"
    ,"Library":"Bibliotheque municipale"
    ,"lat":49.15894
    ,"lng":5.386757
    ,"Quantity":"Some (between 10 and 50 digitized manuscripts)"
    ,"Website":"http://bvmm.irht.cnrs.fr/resultRecherche/resultRecherche.php?rechercheRapide=Verdun&newSearch=1"
  },
  {
     "Nation":"France"
    ,"City":"Orleans"
    ,"Library":"Musee historique et archeologique"
    ,"lat":47.90065
    ,"lng":1.905433
    ,"Quantity":"Some (between 10 and 50 digitized manuscripts)"
    ,"Website":"http://bvmm.irht.cnrs.fr/resultRecherche/resultRecherche.php?rechercheRapide=Orleans,+Mus%C3%A9e+historique+et+arch%C3%A9ologique&newSearch=1"
  },
  {
     "Nation":"France"
    ,"City":"Cherbourg"
    ,"Library":"Bibliotheque municipale"
    ,"lat":49.636675
    ,"lng":-1.622875
    ,"Quantity":"Some (between 10 and 50 digitized manuscripts)"
    ,"Website":"http://bvmm.irht.cnrs.fr/resultRecherche/resultRecherche.php?NOM_VILLE=CHERBOURG&TOUT=true"
  },
  {
     "Nation":"France"
    ,"City":"Lille"
    ,"Library":"Bibliotheque municipale"
    ,"lat":50.675671
    ,"lng":3.064083
    ,"Quantity":"Some (between 10 and 50 digitized manuscripts)"
    ,"Website":"http://bvmm.irht.cnrs.fr/resultRecherche/resultRecherche.php?NOM_VILLE=LILLE&TOUT=true"
  },
  {
     "Nation":"France"
    ,"City":"Saint-Omer"
    ,"Library":"Bibliotheque municipale"
    ,"lat":50.74757
    ,"lng":2.257262
    ,"Quantity":"Some (between 10 and 50 digitized manuscripts)"
    ,"Website":"http://bvmm.irht.cnrs.fr/resultRecherche/resultRecherche.php?NOM_VILLE=SAINT-OMER&TOUT=true"
  },
  {
     "Nation":"France"
    ,"City":"Langres"
    ,"Library":"Bibliotheque municipale"
    ,"lat":47.866816
    ,"lng":5.334297
    ,"Quantity":"Some (between 10 and 50 digitized manuscripts)"
    ,"Website":"http://bvmm.irht.cnrs.fr/resultRecherche/resultRecherche.php?rechercheRapide=Langres&newSearch=1"
  },
  {
     "Nation":"France"
    ,"City":"Evreux"
    ,"Library":"Bibliotheque municipale"
    ,"lat":49.026754
    ,"lng":1.151361
    ,"Quantity":"Some (between 10 and 50 digitized manuscripts)"
    ,"Website":"http://bvmm.irht.cnrs.fr/resultRecherche/resultRecherche.php?NOM_VILLE=EVREUX&TOUT=true"
  },
  {
     "Nation":"France"
    ,"City":"Saint-Brieuc"
    ,"Library":"Bibliotheque municipale"
    ,"lat":48.51418
    ,"lng":-2.765835
    ,"Quantity":"Some (between 10 and 50 digitized manuscripts)"
    ,"Website":"http://bvmm.irht.cnrs.fr/resultRecherche/resultRecherche.php?rechercheRapide=Saint-Brieuc&newSearch=1"
  },
  {
     "Nation":"France"
    ,"City":"Foix"
    ,"Library":"Bibliotheque municipale"
    ,"lat":42.955731
    ,"lng":1.609414
    ,"Quantity":"Some (between 10 and 50 digitized manuscripts)"
    ,"Website":"http://bvmm.irht.cnrs.fr/resultRecherche/resultRecherche.php?NOM_VILLE=FOIX&TOUT=true"
  },
  {
     "Nation":"France"
    ,"City":"Semur-En-Auxois"
    ,"Library":"Bibliotheque municipale"
    ,"lat":47.489854
    ,"lng":4.33234
    ,"Quantity":"Few ( < 10 digitized manuscripts)"
    ,"Website":"http://bvmm.irht.cnrs.fr/resultRecherche/resultRecherche.php?rechercheRapide=Semur-En-Auxois&newSearch=1"
  },
  {
     "Nation":"France"
    ,"City":"Saumur"
    ,"Library":"Bibliotheque municipale"
    ,"lat":47.260184
    ,"lng":-0.080893
    ,"Quantity":"Few ( < 10 digitized manuscripts)"
    ,"Website":"http://bvmm.irht.cnrs.fr/resultRecherche/resultRecherche.php?rechercheRapide=Saumur,+Biblioth%C3%A8que+municipale&newSearch=1"
  },
  {
     "Nation":"France"
    ,"City":"Strasbourg"
    ,"Library":"Bibliotheque municipale"
    ,"lat":48.601394
    ,"lng":7.721664
    ,"Quantity":"Few ( < 10 digitized manuscripts)"
    ,"Website":"http://bvmm.irht.cnrs.fr/resultRecherche/resultRecherche.php?rechercheRapide=Strasbourg,+municipale&newSearch=1"
  },
  {
     "Nation":"France"
    ,"City":"Chateauroux"
    ,"Library":"Bibliotheque municipale"
    ,"lat":46.811416
    ,"lng":1.686779
    ,"Quantity":"Few ( < 10 digitized manuscripts)"
    ,"Website":"http://bvmm.irht.cnrs.fr/resultRecherche/resultRecherche.php?rechercheRapide=Chateauroux&newSearch=1"
  },
  {
     "Nation":"France"
    ,"City":"Blois"
    ,"Library":"Bibliotheque municipale"
    ,"lat":47.588099
    ,"lng":1.336272
    ,"Quantity":"Few ( < 10 digitized manuscripts)"
    ,"Website":"http://bvmm.irht.cnrs.fr/resultRecherche/resultRecherche.php?rechercheRapide=Blois&newSearch=1"
  },
  {
     "Nation":"France"
    ,"City":"Saint-Claude"
    ,"Library":"Bibliotheque municipale"
    ,"lat":46.385223
    ,"lng":5.867782
    ,"Quantity":"Few ( < 10 digitized manuscripts)"
    ,"Website":"http://bvmm.irht.cnrs.fr/resultRecherche/resultRecherche.php?rechercheRapide=Blois\n"
  },
  {
     "Nation":"France"
    ,"City":"Draguignan"
    ,"Library":"Bibliotheque municipale"
    ,"lat":43.537727
    ,"lng":6.464993
    ,"Quantity":"Few ( < 10 digitized manuscripts)"
    ,"Website":"http://bvmm.irht.cnrs.fr/resultRecherche/resultRecherche.php?rechercheRapide=Draguignan&newSearch=1"
  },
  {
     "Nation":"France"
    ,"City":"Millau"
    ,"Library":"Bibliotheque municipale"
    ,"lat":44.099532
    ,"lng":3.077801
    ,"Quantity":"Few ( < 10 digitized manuscripts)"
    ,"Website":"http://bvmm.irht.cnrs.fr/resultRecherche/resultRecherche.php?rechercheRapide=Millau&newSearch=1"
  },
  {
     "Nation":"France"
    ,"City":"Rodez"
    ,"Library":"Bibliotheque de la Societe des lettres de l'Aveyron"
    ,"lat":44.347419
    ,"lng":2.574891
    ,"Quantity":"Few ( < 10 digitized manuscripts)"
    ,"Website":"http://bvmm.irht.cnrs.fr/resultRecherche/resultRecherche.php?rechercheRapide=Rodez,+Biblioth%C3%A8que+de+la+Soci%C3%A9t%C3%A9+des+lettres+de+l%27Aveyron&newSearch=1"
  },
  {
     "Nation":"France"
    ,"City":"Frejus"
    ,"Library":"Bibliotheque municipale"
    ,"lat":44.945673
    ,"lng":6.559763
    ,"Quantity":"Few ( < 10 digitized manuscripts)"
    ,"Website":"http://bvmm.irht.cnrs.fr/resultRecherche/resultRecherche.php?NOM_VILLE=FREJUS&TOUT=true"
  },
  {
     "Nation":"France"
    ,"City":"Epernay"
    ,"Library":"Bibliotheque municipale"
    ,"lat":49.043412
    ,"lng":3.956242
    ,"Quantity":"Few ( < 10 digitized manuscripts)"
    ,"Website":"http://bvmm.irht.cnrs.fr/resultRecherche/resultRecherche.php?rechercheRapide=Epernay&newSearch=1"
  },
  {
     "Nation":"France"
    ,"City":"Haguenau"
    ,"Library":"Bibliotheque municipale"
    ,"lat":48.813491
    ,"lng":7.79125
    ,"Quantity":"Few ( < 10 digitized manuscripts)"
    ,"Website":"http://bvmm.irht.cnrs.fr/resultRecherche/resultRecherche.php?rechercheRapide=Haguenau&newSearch=1"
  },
  {
     "Nation":"France"
    ,"City":"Laval"
    ,"Library":"Bibliotheque municipale"
    ,"lat":48.077863
    ,"lng":-0.770138
    ,"Quantity":"Few ( < 10 digitized manuscripts)"
    ,"Website":"http://bvmm.irht.cnrs.fr/resultRecherche/resultRecherche.php?rechercheRapide=Laval&newSearch=1"
  },
  {
     "Nation":"France"
    ,"City":"Saumur"
    ,"Library":"Chateau-Musee"
    ,"lat":47.256747
    ,"lng":-0.072355
    ,"Quantity":"Few ( < 10 digitized manuscripts)"
    ,"Website":"http://bvmm.irht.cnrs.fr/resultRecherche/resultRecherche.php?rechercheRapide=Ch%C3%A2teau-Mus%C3%A9e&newSearch=1"
  },
  {
     "Nation":"France"
    ,"City":"Cahors"
    ,"Library":"Bibliotheque municipale"
    ,"lat":44.474314
    ,"lng":1.40688
    ,"Quantity":"Few ( < 10 digitized manuscripts)"
    ,"Website":"http://bvmm.irht.cnrs.fr/resultRecherche/resultRecherche.php?NOM_VILLE=CAHORS&TOUT=true"
  },
  {
     "Nation":"France"
    ,"City":"Lisieux"
    ,"Library":"Bibliotheque municipale"
    ,"lat":49.145833
    ,"lng":0.227849
    ,"Quantity":"Few ( < 10 digitized manuscripts)"
    ,"Website":"http://bvmm.irht.cnrs.fr/resultRecherche/resultRecherche.php?rechercheRapide=Lisieux&newSearch=1"
  },
  {
     "Nation":"France"
    ,"City":"Nantes"
    ,"Library":"Archives Historiques du diocese de Nantes"
    ,"lat":47.224267
    ,"lng":-1.542319
    ,"Quantity":"Few ( < 10 digitized manuscripts)"
    ,"Website":"http://bvmm.irht.cnrs.fr/resultRecherche/resultRecherche.php?rechercheRapide=Archives+Historiques+du+dioc%C3%A8se+de+Nantes&newSearch=1"
  },
  {
     "Nation":"France"
    ,"City":"Soissons"
    ,"Library":"Bibliotheque municipale"
    ,"lat":49.376662
    ,"lng":3.32342
    ,"Quantity":"Few ( < 10 digitized manuscripts)"
    ,"Website":"http://bvmm.irht.cnrs.fr/resultRecherche/resultRecherche.php?rechercheRapide=Soissons&newSearch=1"
  },
  {
     "Nation":"France"
    ,"City":"Castres"
    ,"Library":"Bibliotheque municipale"
    ,"lat":43.607151
    ,"lng":2.253273
    ,"Quantity":"Few ( < 10 digitized manuscripts)"
    ,"Website":"http://bvmm.irht.cnrs.fr/resultRecherche/resultRecherche.php?NOM_VILLE=CASTRES&TOUT=true"
  },
  {
     "Nation":"France"
    ,"City":"Paris"
    ,"Library":"Bibliotheque du Chapitre metropolitain"
    ,"lat":48.852968
    ,"lng":2.349902
    ,"Quantity":"Few ( < 10 digitized manuscripts)"
    ,"Website":"http://bvmm.irht.cnrs.fr/resultRecherche/resultRecherche.php?rechercheRapide=Biblioth%C3%A8que+du+Chap%C3%AEtre+m%C3%A9tropolitain&newSearch=1"
  },
  {
     "Nation":"France"
    ,"City":"Angers"
    ,"Library":"Universite catholique de l'Ouest, Bibliotheque centrale"
    ,"lat":47.462173
    ,"lng":-0.547861
    ,"Quantity":"Few ( < 10 digitized manuscripts)"
    ,"Website":"http://bvmm.irht.cnrs.fr/resultRecherche/resultRecherche.php?rechercheRapide=Universit%C3%A9+catholique+de+l%27Ouest,+Biblioth%C3%A8que+centrale&newSearch=1"
  },
  {
     "Nation":"France"
    ,"City":"Chateau-Gontier"
    ,"Library":"Bibliotheque municipale"
    ,"lat":47.826693
    ,"lng":-0.7069
    ,"Quantity":"Few ( < 10 digitized manuscripts)"
    ,"Website":"http://bvmm.irht.cnrs.fr/resultRecherche/resultRecherche.php?rechercheRapide=Chateau-Gontier&newSearch=1"
  },
  {
     "Nation":"France"
    ,"City":"Havre (Le)"
    ,"Library":"Bibliotheque municipale"
    ,"lat":49.49432
    ,"lng":0.107929
    ,"Quantity":"Few ( < 10 digitized manuscripts)"
    ,"Website":"http://bvmm.irht.cnrs.fr/resultRecherche/resultRecherche.php?rechercheRapide=Havre+(Le)&newSearch=1"
  },
  {
     "Nation":"France"
    ,"City":"Honfleur"
    ,"Library":"Bibliotheque municipale"
    ,"lat":49.418539
    ,"lng":0.233262
    ,"Quantity":"Few ( < 10 digitized manuscripts)"
    ,"Website":"http://bvmm.irht.cnrs.fr/resultRecherche/resultRecherche.php?rechercheRapide=Honfleur&newSearch=1"
  },
  {
     "Nation":"France"
    ,"City":"Metz"
    ,"Library":"Bibliotheque municipale"
    ,"lat":49.119643
    ,"lng":6.176905
    ,"Quantity":"Few ( < 10 digitized manuscripts)"
    ,"Website":"http://bvmm.irht.cnrs.fr/resultRecherche/resultRecherche.php?rechercheRapide=Metz&newSearch=1"
  },
  {
     "Nation":"France"
    ,"City":"Montbeliard"
    ,"Library":"Bibliotheque municipale"
    ,"lat":47.50961
    ,"lng":6.798466
    ,"Quantity":"Few ( < 10 digitized manuscripts)"
    ,"Website":"http://bvmm.irht.cnrs.fr/resultRecherche/resultRecherche.php?rechercheRapide=Montbeliard&newSearch=1"
  },
  {
     "Nation":"France"
    ,"City":"Bagneres-De-Bigorre"
    ,"Library":"Bibliotheque municipale"
    ,"lat":43.06214
    ,"lng":0.149293
    ,"Quantity":"Few ( < 10 digitized manuscripts)"
    ,"Website":"http://bvmm.irht.cnrs.fr/resultRecherche/resultRecherche.php?NOM_VILLE=BAGNERES-DE-BIGORRE&TOUT=true"
  },
  {
     "Nation":"France"
    ,"City":"Hyres"
    ,"Library":"Bibliotheque municipale"
    ,"lat":43.075761
    ,"lng":5.92789
    ,"Quantity":"Few ( < 10 digitized manuscripts)"
    ,"Website":"http://bvmm.irht.cnrs.fr/resultRecherche/resultRecherche.php?NOM_VILLE=HYERES&TOUT=true"
  },
  {
     "Nation":"France"
    ,"City":"Saint-Antonin-Noble-Val"
    ,"Library":"Archives municipales"
    ,"lat":44.150055
    ,"lng":1.756144
    ,"Quantity":"Few ( < 10 digitized manuscripts)"
    ,"Website":"http://bvmm.irht.cnrs.fr/resultRecherche/resultRecherche.php?NOM_VILLE=SAINT-ANTONIN-NOBLE-VAL&TOUT=true"
  },
  {
     "Nation":"France"
    ,"City":"Clamecy"
    ,"Library":"Musee d'Art et d'Histoire"
    ,"lat":47.460371
    ,"lng":3.520501
    ,"Quantity":"Few ( < 10 digitized manuscripts)"
    ,"Website":"http://bvmm.irht.cnrs.fr/resultRecherche/resultRecherche.php?rechercheRapide=Clamecy&newSearch=1"
  },
  {
     "Nation":"France"
    ,"City":"Nantes"
    ,"Library":"Bibliotheque diocesain"
    ,"lat":47.218371
    ,"lng":-1.553621
    ,"Quantity":"Few ( < 10 digitized manuscripts)"
    ,"Website":"http://bvmm.irht.cnrs.fr/resultRecherche/resultRecherche.php?rechercheRapide=Nantes,+Biblioth%C3%A8que+dioc%C3%A9sain&newSearch=1"
  },
  {
     "Nation":"France"
    ,"City":"Nantes"
    ,"Library":"Musee des Beaux-arts"
    ,"lat":47.219451
    ,"lng":-1.546684
    ,"Quantity":"Few ( < 10 digitized manuscripts)"
    ,"Website":"http://bvmm.irht.cnrs.fr/resultRecherche/resultRecherche.php?rechercheRapide=Nantes,+Mus%C3%A9e+des+Beaux-arts&newSearch=1"
  },
  {
     "Nation":"France"
    ,"City":"Nevers"
    ,"Library":"Bibliotheque municipale"
    ,"lat":46.990582
    ,"lng":3.162845
    ,"Quantity":"Few ( < 10 digitized manuscripts)"
    ,"Website":"http://bvmm.irht.cnrs.fr/resultRecherche/resultRecherche.php?rechercheRapide=Nevers&newSearch=1"
  },
  {
     "Nation":"France"
    ,"City":"Quimper"
    ,"Library":"Bibliotheque municipale"
    ,"lat":47.997581
    ,"lng":-4.097899
    ,"Quantity":"Few ( < 10 digitized manuscripts)"
    ,"Website":"http://bvmm.irht.cnrs.fr/resultRecherche/resultRecherche.php?rechercheRapide=Quimper&newSearch=1"
  },
  {
     "Nation":"France"
    ,"City":"Vannes"
    ,"Library":"Bibliotheque municipale"
    ,"lat":47.657964
    ,"lng":-2.760847
    ,"Quantity":"Few ( < 10 digitized manuscripts)"
    ,"Website":"http://bvmm.irht.cnrs.fr/resultRecherche/resultRecherche.php?rechercheRapide=Vannes&newSearch=1"
  },
  {
     "Nation":"France"
    ,"City":"Tarbes"
    ,"Library":"Bibliotheque municipale"
    ,"lat":43.232951
    ,"lng":0.078082
    ,"Quantity":"Few (< 10 digitized manuscripts)"
    ,"Website":"http://bvmm.irht.cnrs.fr/resultRecherche/resultRecherche.php?NOM_VILLE=TARBES&TOUT=true"
  },
  {
     "Nation":"France"
    ,"City":"Portet-Sur-Garonne"
    ,"Library":"Mairie"
    ,"lat":43.520483
    ,"lng":1.399944
    ,"Quantity":"Few (< 10 digitized manuscripts)"
    ,"Website":"http://bvmm.irht.cnrs.fr/resultRecherche/resultRecherche.php?NOM_VILLE=PORTET-SUR-GARONNE&TOUT=true"
  },
  {
     "Nation":"France"
    ,"City":"Castelsarrasin"
    ,"Library":"Archives municipales"
    ,"lat":44.039783
    ,"lng":1.107179
    ,"Quantity":"Few (< 10 digitized manuscripts)"
    ,"Website":"http://bvmm.irht.cnrs.fr/resultRecherche/resultRecherche.php?NOM_VILLE=CASTELSARRASIN&TOUT=true"
  },
  {
     "Nation":"France"
    ,"City":"Noyon"
    ,"Library":"Bibliotheque municipale"
    ,"lat":49.581384
    ,"lng":2.998131
    ,"Quantity":"Few (< 10 digitized manuscripts)"
    ,"Website":"http://bvmm.irht.cnrs.fr/resultRecherche/resultRecherche.php?NOM_VILLE=NOYON&TOUT=true"
  },
  {
     "Nation":"France"
    ,"City":"Argentan"
    ,"Library":"Bibliotheque municipale"
    ,"lat":48.743833
    ,"lng":-0.016566
    ,"Quantity":"Few (< 10 digitized manuscripts)"
    ,"Website":"http://bvmm.irht.cnrs.fr/resultRecherche/resultRecherche.php?rechercheRapide=Argentan&newSearch=1"
  },
  {
     "Nation":"France"
    ,"City":"Brest"
    ,"Library":"Bibliotheque municipale"
    ,"lat":48.390255
    ,"lng":-4.486076
    ,"Quantity":"Few (< 10 digitized manuscripts)"
    ,"Website":"http://bvmm.irht.cnrs.fr/resultRecherche/resultRecherche.php?rechercheRapide=Brest&newSearch=1"
  },
  {
     "Nation":"France"
    ,"City":"Caen"
    ,"Library":"Bibliotheque universitaire"
    ,"lat":49.211253
    ,"lng":-0.37011
    ,"Quantity":"Few (< 10 digitized manuscripts)"
    ,"Website":"http://bvmm.irht.cnrs.fr/resultRecherche/resultRecherche.php?rechercheRapide=Caen,+Biblioth%C3%A8que+universitaire&newSearch=1"
  },
  {
     "Nation":"France"
    ,"City":"Coutances"
    ,"Library":"Bibliotheque municipale"
    ,"lat":49.047597
    ,"lng":-1.445261
    ,"Quantity":"Few (< 10 digitized manuscripts)"
    ,"Website":"http://bvmm.irht.cnrs.fr/resultRecherche/resultRecherche.php?rechercheRapide=Coutances&newSearch=1"
  },
  {
     "Nation":"France"
    ,"City":"Joigny"
    ,"Library":"Bibliotheque municipale"
    ,"lat":47.980967
    ,"lng":3.398961
    ,"Quantity":"Few (< 10 digitized manuscripts)"
    ,"Website":"http://bvmm.irht.cnrs.fr/resultRecherche/resultRecherche.php?rechercheRapide=Joigny&newSearch=1"
  },
  {
     "Nation":"France"
    ,"City":"Poitiers"
    ,"Library":"Bibliotheque municipale"
    ,"lat":46.580226
    ,"lng":0.340375
    ,"Quantity":"Few (< 10 digitized manuscripts)"
    ,"Website":"http://bvmm.irht.cnrs.fr/resultRecherche/resultRecherche.php?rechercheRapide=poitiers&newSearch=1"
  },
  {
     "Nation":"France"
    ,"City":"Saint-Die-Des-Vosges"
    ,"Library":"Bibliotheque municipale"
    ,"lat":48.287468
    ,"lng":6.947767
    ,"Quantity":"Few (< 10 digitized manuscripts)"
    ,"Website":"http://bvmm.irht.cnrs.fr/resultRecherche/resultRecherche.php?rechercheRapide=Saint-Die-Des-Vosges&newSearch=1"
  },
  {
     "Nation":"France"
    ,"City":"Tournus"
    ,"Library":"Bibliotheque municipale"
    ,"lat":46.561617
    ,"lng":4.911953
    ,"Quantity":"Few (< 10 digitized manuscripts)"
    ,"Website":"http://bvmm.irht.cnrs.fr/resultRecherche/resultRecherche.php?rechercheRapide=Tournus&newSearch=1"
  },
  {
     "Nation":"France"
    ,"City":"Vitre"
    ,"Library":"Bibliotheque municipale"
    ,"lat":48.124746
    ,"lng":-1.21543
    ,"Quantity":"Few (< 10 digitized manuscripts)"
    ,"Website":"http://bvmm.irht.cnrs.fr/resultRecherche/resultRecherche.php?rechercheRapide=VITRE,+Biblioth%C3%A8que+municipale,+0001&newSearch=1"
  },
  {
     "Nation":"France"
    ,"City":"Grenoble"
    ,"Library":"Bibliotheque municipale de Grenoble"
    ,"lat":45.185442
    ,"lng":5.730617
    ,"Quantity":"Some (between 10 and 50 digitized manuscripts)"
    ,"Website":"http://manuscrits-medievaux.bm-grenoble.fr/index.htm"
  },
  {
     "Nation":"France"
    ,"City":"Paris"
    ,"Library":"Bibliotheque Mazarine"
    ,"lat":48.857308
    ,"lng":2.336891
    ,"Quantity":"Unknown"
    ,"Website":"http://liberfloridus.cines.fr/textes/biblio_fr.html"
  },
  {
     "Nation":"France"
    ,"City":"Paris"
    ,"Library":"Bibliotheque Sainte-Genevieve"
    ,"lat":48.846957
    ,"lng":2.345827
    ,"Quantity":"Unknown"
    ,"Website":"http://liberfloridus.cines.fr/textes/biblio_fr.html"
  },
  {
     "Nation":"France"
    ,"City":"Laon"
    ,"Library":"Bibliotheque municipale"
    ,"lat":49.563359
    ,"lng":3.609325
    ,"Quantity":"Some (between 10 and 50 digitized manuscripts)"
    ,"Website":"http://manuscrit.ville-laon.fr/_app/index.php"
  },
  {
     "Nation":"France"
    ,"City":"Melun"
    ,"Library":"Archives Departementales de Seine-et-Marne"
    ,"lat":48.515031
    ,"lng":2.620251
    ,"Quantity":"Some (between 10 and 50 digitized manuscripts)"
    ,"Website":"http://bvmm.irht.cnrs.fr/resultRecherche/resultRecherche.php?rechercheRapide=Archives+D%C3%A9partementales+de+Seine-et-Marne&newSearch=1"
  },
  {
     "Nation":"Germany"
    ,"City":"Karlsruhe"
    ,"Library":"Badische Landesbibliothek"
    ,"lat":49.010669
    ,"lng":8.398898
    ,"Quantity":"More than half-thousand digitized manuscripts (between 500 and 1000)"
    ,"Website":"http://digital.blb-karlsruhe.de/Handschriften/nav/classification/20950"
  },
  {
     "Nation":"Germany"
    ,"City":"Wolfenbuttel"
    ,"Library":"Herzog August Bibliothek"
    ,"lat":52.164047
    ,"lng":10.530299
    ,"Quantity":"More than half-thousand digitized manuscripts (between 500 and 1000)"
    ,"Website":"http://dbs.hab.de/mss/"
  },
  {
     "Nation":"Germany"
    ,"City":"Munchen,"
    ,"Library":"Munchener Digitalisierungszentrum (MDZ)"
    ,"lat":48.147529
    ,"lng":11.580119
    ,"Quantity":"More than half-thousand digitized manuscripts (between 500 and 1000)"
    ,"Website":"http://www.digitale-sammlungen.de/index.html?c=zeit_index&kl=bis1000&l=en"
  },
  {
     "Nation":"Germany"
    ,"City":"Cologne"
    ,"Library":"Erzbischoflichen Diozesan- und Dombibliothek Koln (DDB)"
    ,"lat":50.944368
    ,"lng":6.95202
    ,"Quantity":"Hundreds (between 100 and 500 digitized manuscripts)"
    ,"Website":"http://www.ceec.uni-koeln.de/"
  },
  {
     "Nation":"Germany"
    ,"City":"Berlin"
    ,"Library":"Staatsbibliothek zu Berlin"
    ,"lat":52.507474
    ,"lng":13.370871
    ,"Quantity":"Hundreds (between 100 and 500 digitized manuscripts)"
    ,"Website":"http://digital.staatsbibliothek-berlin.de/suche/?tx_goobit3_sbb_search%5bDC%5d%5b0%5d=handschriften&tx_goobit3_sbb_search%5bDC%5d%5b1%5d=handschriften&tx_goobit3_sbb_search%5border%5d=BYCREATOR&tx_goobit3_sbb_search%5breverse%5d=0"
  },
  {
     "Nation":"Germany"
    ,"City":"Bamberg"
    ,"Library":"Staatsbibliothek Bamberg"
    ,"lat":49.897355
    ,"lng":10.882194
    ,"Quantity":"Hundreds (between 100 and 500 digitized manuscripts)"
    ,"Website":"http://bsbsbb.bsb.lrz-muenchen.de/~db/ausgaben/index.html"
  },
  {
     "Nation":"Germany"
    ,"City":"Heidelberg"
    ,"Library":"Universitatsbibliothek Heidelberg"
    ,"lat":49.408916
    ,"lng":8.705869
    ,"Quantity":"Hundreds (between 100 and 500 digitized manuscripts)"
    ,"Website":"http://www.ub.uni-heidelberg.de/helios/digi/handschriften.html"
  },
  {
     "Nation":"Germany"
    ,"City":"Dusseldorf"
    ,"Library":"Universitats- und Landesbibliothek Dusseldorf"
    ,"lat":51.186793
    ,"lng":6.802896
    ,"Quantity":"Hundreds (between 100 and 500 digitized manuscripts)"
    ,"Website":"http://digital.ub.uni-duesseldorf.de/nav/classification/507874"
  },
  {
     "Nation":"Germany"
    ,"City":"Ausburg"
    ,"Library":"Universitatsbibliothek Augsburg"
    ,"lat":48.334369
    ,"lng":10.895214
    ,"Quantity":"Some (between 10 and 50 digitized manuscripts)"
    ,"Website":"http://www.bibliothek.uni-augsburg.de/dda/cod/"
  },
  {
     "Nation":"Germany"
    ,"City":"Berlin"
    ,"Library":"Humboldt University Library"
    ,"lat":52.524929
    ,"lng":13.379733
    ,"Quantity":"Few ( < 10 digitized manuscripts)"
    ,"Website":"http://goobi.ub.hu-berlin.de/viewer/browse/mittelalterlichehandschriften/-/1/-/-/"
  },
  {
     "Nation":"Germany"
    ,"City":"Darmstadt"
    ,"Library":"Universitats- und Landesbibliothek Darmstadt"
    ,"lat":49.876431
    ,"lng":8.658064
    ,"Quantity":"Unknown"
    ,"Website":"http://tudigit.ulb.tu-darmstadt.de/show/sammlung22"
  },
  {
     "Nation":"Germany"
    ,"City":"Dresden"
    ,"Library":"Sachsische Landesbibliothek â€“\nStaats- und Universitatsbibliothek Dresden (SLUB)"
    ,"lat":51.028563
    ,"lng":13.736838
    ,"Quantity":"Many (Between 50 and 100 digitized manuscripts)"
    ,"Website":"http://digital.slub-dresden.de/listenansicht/"
  },
  {
     "Nation":"Germany"
    ,"City":"Erlangen"
    ,"Library":"Universitatsbibliothek Erlangen-Nurnberg"
    ,"lat":49.596806
    ,"lng":11.007345
    ,"Quantity":"Some (between 10 and 50 digitized manuscripts)"
    ,"Website":"http://bvbm1.bib-bvb.de/R/Y6KIPU8R7PVV5HLCLD3M644L14E2BTIXK8N5S6RVMUFTLXPU1Y-04687?func=collections-result&collection_id=1995&local_base=UBE&pds_handle=GUEST"
  },
  {
     "Nation":"Germany"
    ,"City":"Wurzburg"
    ,"Library":"Universitatsbibliothek Wurzburg"
    ,"lat":49.782455
    ,"lng":9.968649
    ,"Quantity":"Hundreds (between 100 and 500 digitized manuscripts)"
    ,"Website":"http://vb.uni-wuerzburg.de/ub/handschriften.html"
  },
  {
     "Nation":"Germany"
    ,"City":"Giessen"
    ,"Library":"Universitatsbibliothek Giesen"
    ,"lat":50.57617
    ,"lng":8.69526
    ,"Quantity":"Some (between 10 and 50 digitized manuscripts)"
    ,"Website":"http://digisam.ub.uni-giessen.de/handschriften.html"
  },
  {
     "Nation":"Germany"
    ,"City":"Trier"
    ,"Library":"Bibliothek des Bischoflichen Priesterseminars, Bistumsarchiv, Stadtbibliothek Trier"
    ,"lat":49.7569
    ,"lng":6.64248
    ,"Quantity":"Hundreds (between 100 and 500 digitized manuscripts)"
    ,"Website":"http://www.stmatthias.uni-trier.de/index.php?id=4&zimk_stmatthias[action]=showDetails&zimk_stmatthias[uid]=-1"
  },
  {
     "Nation":"Germany"
    ,"City":"Jena"
    ,"Library":"Thuringer Universitats- und Landesbibliothek Jena"
    ,"lat":50.930698
    ,"lng":11.588001
    ,"Quantity":"Hundreds (between 100 and 500 digitized manuscripts)"
    ,"Website":"http://archive.thulb.uni-jena.de/hisbest/servlets/solr/select?numPerPage=10&q=%2Bcomponent.top:%22sondersh%C3%A4user.fragmente%22&mask=content/main/component.xml&version=4.5&start=170&rows=10"
  },
  {
     "Nation":"Germany"
    ,"City":"Fulda"
    ,"Library":"Hochschul- und Landesbibliothek Fulda"
    ,"lat":50.55483
    ,"lng":9.68027
    ,"Quantity":"Many (Between 50 and 100 digitized manuscripts)"
    ,"Website":"http://fuldig.hs-fulda.de/viewer/browse/handschriften*/-/1/-/-/"
  },
  {
     "Nation":"Germany"
    ,"City":"Kassel"
    ,"Library":"Universitatsbibliothek Kassel"
    ,"lat":51.321851
    ,"lng":9.505549
    ,"Quantity":"Unknown"
    ,"Website":"http://orka.bibliothek.uni-kassel.de/viewer/search/handschriften*/-/1/SORT_YEARPUBLISH/-/"
  },
  {
     "Nation":"Germany"
    ,"City":"Cologne"
    ,"Library":"Historisches Archiv der Stadt Koln"
    ,"lat":50.93467
    ,"lng":6.96211
    ,"Quantity":"Unknown"
    ,"Website":"http://historischesarchivkoeln.de/de/lesesaal/tektonik/3425/3.2.2+Handschriften"
  },
  {
     "Nation":"Germany"
    ,"City":"Weimar"
    ,"Library":"Herzogin Anna Amalia Bibliothek"
    ,"lat":50.978516
    ,"lng":11.332221
    ,"Quantity":"Few ( < 10 digitized manuscripts)"
    ,"Website":"http://ora-web.swkk.de/digimo_online/digimo.entry"
  },
  {
     "Nation":"Germany"
    ,"City":"Frankfurt am Main"
    ,"Library":"Goethe-Universitat Frankfurt am Main Universitatsbibliothek"
    ,"lat":50.12052
    ,"lng":8.653091
    ,"Quantity":"More than half-thousand digitized manuscripts (between 500 and 1000)"
    ,"Website":"http://sammlungen.ub.uni-frankfurt.de/msma/nav/index/all"
  },
  {
     "Nation":"Germany"
    ,"City":"Stuttgart"
    ,"Library":"Wurttembergische Landesbibliothek"
    ,"lat":48.776926
    ,"lng":9.18504
    ,"Quantity":"Hundreds (between 100 and 500 digitized manuscripts)"
    ,"Website":"http://digital.wlb-stuttgart.de/start/"
  },
  {
     "Nation":"Germany"
    ,"City":"Freiburg im Breisgau"
    ,"Library":"Albert-Ludwigs-Universitat Freiburg"
    ,"lat":47.986787
    ,"lng":7.872744
    ,"Quantity":"Hundreds (between 100 and 500 digitized manuscripts)"
    ,"Website":"https://www.ub.uni-freiburg.de/recherche/digitale-bibliothek/freiburger-historische-bestaende/mittelalter/"
  },
  {
     "Nation":"Germany"
    ,"City":"Tubingen"
    ,"Library":"Universitatsbibliothek Tubingen"
    ,"lat":48.5251
    ,"lng":9.06176
    ,"Quantity":"Unknown"
    ,"Website":"http://idb.ub.uni-tuebingen.de/digitue/tue/"
  },
  {
     "Nation":"Germany"
    ,"City":"Ansbach"
    ,"Library":"Staatliche Bibliothek (Schlosbibliothek)"
    ,"lat":49.3034
    ,"lng":10.57451
    ,"Quantity":"Few ( < 10 digitized manuscripts)"
    ,"Website":"http://www.manuscripta-mediaevalia.de/?xdb_objtype!%22digitalisierteHandschriften%22%20r5a:*%20r5a!%22Ansbach%22"
  },
  {
     "Nation":"Germany"
    ,"City":"Barth"
    ,"Library":"Kirchenbibliothek Sankt Marien"
    ,"lat":54.368928
    ,"lng":12.724311
    ,"Quantity":"Few ( < 10 digitized manuscripts)"
    ,"Website":"http://www.manuscripta-mediaevalia.de/?xdb_objtype!\"digitalisierteHandschriften\"%20r5a:*%20r5a!\"Barth\""
  },
  {
     "Nation":"Germany"
    ,"City":"Bonn"
    ,"Library":"Universitats- und Landesbibliothek Bonn"
    ,"lat":50.731342
    ,"lng":7.108468
    ,"Quantity":"Hundreds (between 100 and 500 digitized manuscripts)"
    ,"Website":"http://www.manuscripta-mediaevalia.de/?xdb_objtype!\"digitalisierteHandschriften\"%20r5a!\"Bonn\""
  },
  {
     "Nation":"Germany"
    ,"City":"Darmstadt"
    ,"Library":"Hessische Landes- und Hochschulbibliothek"
    ,"lat":49.873369
    ,"lng":8.656489
    ,"Quantity":"Few ( < 10 digitized manuscripts)"
    ,"Website":"http://www.manuscripta-mediaevalia.de/?xdb_objtype!\"digitalisierteHandschriften\"%20r5a:*%20r5a!\"Darmstadt\""
  },
  {
     "Nation":"Germany"
    ,"City":"Dillingen an der Donau"
    ,"Library":"Studienbibliothek"
    ,"lat":48.576892
    ,"lng":10.491123
    ,"Quantity":"Some (between 10 and 50 digitized manuscripts)"
    ,"Website":"http://www.manuscripta-mediaevalia.de/?xdb_objtype!\"digitalisierteHandschriften\"%20r5a:*%20r5a!\"Dillingen an der Donau\""
  },
  {
     "Nation":"Germany"
    ,"City":"Dusseldorf"
    ,"Library":"Heinrich-Heine-Universitat Dusseldorf"
    ,"lat":51.192465
    ,"lng":6.793181
    ,"Quantity":"Hundreds (between 100 and 500 digitized manuscripts)"
    ,"Website":"http://www.manuscripta-mediaevalia.de/?xdb_objtype!\"digitalisierteHandschriften\"%20r5a:*%20r5a!\"Dusseldorf\""
  },
  {
     "Nation":"Germany"
    ,"City":"Greifswald"
    ,"Library":"Geistliches Ministerium Greifswald"
    ,"lat":54.095319
    ,"lng":13.377666
    ,"Quantity":"Many (Between 50 and 100 digitized manuscripts)"
    ,"Website":"http://www.manuscripta-mediaevalia.de/?xdb_objtype!\"digitalisierteHandschriften\"%20r5a:*%20r5a!\"Greifswald\"%20r5b!\"Geistliches Ministerium Greifswald|Greifswald\""
  },
  {
     "Nation":"Germany"
    ,"City":"Greifswald"
    ,"Library":"Universitatsbibliothek Greifswald"
    ,"lat":54.090826
    ,"lng":13.406299
    ,"Quantity":"Many (Between 50 and 100 digitized manuscripts)"
    ,"Website":"http://www.manuscripta-mediaevalia.de/?xdb_objtype!\"digitalisierteHandschriften\"%20r5a:*%20r5a!\"Greifswald\"%20r5b!\"Universitatsbibliothek Greifswald|Greifswald\""
  },
  {
     "Nation":"Germany"
    ,"City":"Leipzig"
    ,"Library":"Universitatsbibliothek Leipzig"
    ,"lat":51.332293
    ,"lng":12.368593
    ,"Quantity":"Hundreds (between 100 and 500 digitized manuscripts)"
    ,"Website":"http://www.manuscripta-mediaevalia.de/?xdb_objtype!\"digitalisierteHandschriften\"%20r5a:*%20r5a!\"Leipzig\""
  },
  {
     "Nation":"Germany"
    ,"City":"Marburg"
    ,"Library":"Staatsarchiv Marburg"
    ,"lat":50.80355
    ,"lng":8.76291
    ,"Quantity":"Some (between 10 and 50 digitized manuscripts)"
    ,"Website":"http://www.manuscripta-mediaevalia.de/?xdb_objtype!\"digitalisierteHandschriften\"%20r5a:*%20r5a!\"Marburg\""
  },
  {
     "Nation":"Germany"
    ,"City":"Modingen"
    ,"Library":"Bibliothek des Klosters Maria-Medingen"
    ,"lat":48.632276
    ,"lng":10.444606
    ,"Quantity":"Few ( < 10 digitized manuscripts)"
    ,"Website":"http://www.manuscripta-mediaevalia.de/?xdb_objtype!\"digitalisierteHandschriften\"%20r5a:*%20r5a!\"Modingen\""
  },
  {
     "Nation":"Germany"
    ,"City":"Munich"
    ,"Library":"Bayerische Staatsbibliothek"
    ,"lat":48.147493
    ,"lng":11.580119
    ,"Quantity":"Thousands (more than 1000 digitized manuscripts)"
    ,"Website":"http://www.manuscripta-mediaevalia.de/?xdb_objtype!\"digitalisierteHandschriften\"%20r5a:*%20r5a!\"Munchen\""
  },
  {
     "Nation":"Germany"
    ,"City":"Stralsund"
    ,"Library":"Stadtarchiv Stralsund"
    ,"lat":54.317652
    ,"lng":13.092205
    ,"Quantity":"Few ( < 10 digitized manuscripts)"
    ,"Website":"http://www.manuscripta-mediaevalia.de/?xdb_objtype!\"digitalisierteHandschriften\"%20r5a:*%20r5a!\"Stralsund\""
  },
  {
     "Nation":"Greece"
    ,"City":"Kalloni"
    ,"Library":"Leimonos Monastery (ÎœÎ¿Î½Î® Î›ÎµÎ¹Î¼ÏŽÎ½Î¿Ï‚)"
    ,"lat":39.247975
    ,"lng":26.17225
    ,"Quantity":"Unknown"
    ,"Website":"http://84.205.233.134/library/xeirografa_en.php"
  },
  {
     "Nation":"Hungary"
    ,"City":"Budapest"
    ,"Library":"National Szechenyi Library"
    ,"lat":47.495106
    ,"lng":19.039612
    ,"Quantity":"Some (between 10 and 50 digitized manuscripts)"
    ,"Website":"http://www.corvina.oszk.hu/corvinas-html/corvinas.htm"
  },
  {
     "Nation":"Hungary"
    ,"City":"Budapest"
    ,"Library":"National Szechenyi Library Multimedia Project"
    ,"lat":47.496615
    ,"lng":19.037932
    ,"Quantity":"Many (Between 50 and 100 digitized manuscripts)"
    ,"Website":"http://nyelvemlekek.oszk.hu/tud/nyelvemlekek"
  },
  {
     "Nation":"Iceland"
    ,"City":"Reykjavik"
    ,"Library":"Stofnun Arna Magnussonar"
    ,"lat":64.1405
    ,"lng":-21.949
    ,"Quantity":"Few ( < 10 digitized manuscripts)"
    ,"Website":"http://handrit.is/en/institution/collectionsview/SAM"
  },
  {
     "Nation":"Ireland"
    ,"City":"Dublin"
    ,"Library":"Royal Irish Academy"
    ,"lat":53.34067
    ,"lng":-6.25822
    ,"Quantity":"Many (Between 50 and 100 digitized manuscripts)"
    ,"Website":"https://www.isos.dias.ie/master.html?https://www.isos.dias.ie/libraries/RIA/english/index.html?ref="
  },
  {
     "Nation":"Ireland"
    ,"City":"Dublin"
    ,"Library":"National Library of Ireland"
    ,"lat":53.341098
    ,"lng":-6.254482
    ,"Quantity":"Some (between 10 and 50 digitized manuscripts)"
    ,"Website":"https://www.isos.dias.ie/master.html?https://www.isos.dias.ie/libraries/NLI/english/index.html?ref="
  },
  {
     "Nation":"Ireland"
    ,"City":"Dublin"
    ,"Library":"Trinity College Dublin"
    ,"lat":53.343738
    ,"lng":-6.254759
    ,"Quantity":"Some (between 10 and 50 digitized manuscripts)"
    ,"Website":"https://www.isos.dias.ie/master.html?https://www.isos.dias.ie/libraries/TCD/english/index.html?ref="
  },
  {
     "Nation":"Ireland"
    ,"City":"Dublin"
    ,"Library":"University College Dublin"
    ,"lat":53.307227
    ,"lng":-6.219077
    ,"Quantity":"Some (between 10 and 50 digitized manuscripts)"
    ,"Website":"https://www.isos.dias.ie/master.html?https://www.isos.dias.ie/libraries/UCD/english/index.html?ref="
  },
  {
     "Nation":"Ireland"
    ,"City":"Maynooth"
    ,"Library":"National University of Ireland "
    ,"lat":53.38129
    ,"lng":-6.59185
    ,"Quantity":"Some (between 10 and 50 digitized manuscripts)"
    ,"Website":"https://www.isos.dias.ie/master.html?https://www.isos.dias.ie/libraries/NUIM/english/index.html?ref="
  },
  {
     "Nation":"Ireland"
    ,"City":"Cappoquin"
    ,"Library":"Mount Melleray Abbey"
    ,"lat":52.187332
    ,"lng":-7.856836
    ,"Quantity":"Some (between 10 and 50 digitized manuscripts)"
    ,"Website":"https://www.isos.dias.ie/master.html?https://www.isos.dias.ie/libraries/MMA/english/index.html?ref="
  },
  {
     "Nation":"Ireland"
    ,"City":"Galway"
    ,"Library":"National University of Ireland"
    ,"lat":53.279243
    ,"lng":-9.058142
    ,"Quantity":"Some (between 10 and 50 digitized manuscripts)"
    ,"Website":"https://www.isos.dias.ie/master.html?https://www.isos.dias.ie/libraries/UCG/english/index.html?ref="
  },
  {
     "Nation":"Ireland"
    ,"City":"Cork"
    ,"Library":"University College Cork"
    ,"lat":51.891494
    ,"lng":-8.49286
    ,"Quantity":"Few ( < 10 digitized manuscripts)"
    ,"Website":"https://www.isos.dias.ie/master.html?https://www.isos.dias.ie/libraries/UCC/english/index.html?ref="
  },
  {
     "Nation":"Ireland"
    ,"City":"Castlerea"
    ,"Library":"Clonalis House"
    ,"lat":53.77025
    ,"lng":-8.508675
    ,"Quantity":"Few ( < 10 digitized manuscripts)"
    ,"Website":"https://www.isos.dias.ie/master.html?https://www.isos.dias.ie/libraries/CLON/english/index.html?ref="
  },
  {
     "Nation":"Ireland"
    ,"City":"Dungarvan"
    ,"Library":"Colaiste na Rinne"
    ,"lat":52.050296
    ,"lng":-7.590866
    ,"Quantity":"Few ( < 10 digitized manuscripts)"
    ,"Website":"https://www.isos.dias.ie/master.html?https://www.isos.dias.ie/libraries/CNR/english/index.html?ref="
  },
  {
     "Nation":"Ireland"
    ,"City":"Dublin"
    ,"Library":"School of Celtic Studies"
    ,"lat":53.331252
    ,"lng":-6.245721
    ,"Quantity":"Few ( < 10 digitized manuscripts)"
    ,"Website":"https://www.isos.dias.ie/master.html?https://www.isos.dias.ie/libraries/DIAS/english/index.html?ref="
  },
  {
     "Nation":"Ireland"
    ,"City":"Dublin"
    ,"Library":"Farmleigh House"
    ,"lat":53.365455
    ,"lng":-6.359557
    ,"Quantity":"Few ( < 10 digitized manuscripts)"
    ,"Website":"https://www.isos.dias.ie/master.html?https://www.isos.dias.ie/libraries/Farmleigh/english/index.html?ref="
  },
  {
     "Nation":"Ireland"
    ,"City":"Maynooth"
    ,"Library":"St. Patrick's College Drumcondra"
    ,"lat":53.370592
    ,"lng":-6.253838
    ,"Quantity":"Few ( < 10 digitized manuscripts)"
    ,"Website":"https://www.isos.dias.ie/master.html?https://www.isos.dias.ie/libraries/SPD/english/index.html?ref="
  },
  {
     "Nation":"Ireland"
    ,"City":"Dublin"
    ,"Library":"Marsh's Library"
    ,"lat":53.339022
    ,"lng":-6.270694
    ,"Quantity":"Few ( < 10 digitized manuscripts)"
    ,"Website":"https://www.isos.dias.ie/master.html?https://www.isos.dias.ie/libraries/MARSH/english/index.html?ref="
  },
  {
     "Nation":"Ireland"
    ,"City":"Chesterfield"
    ,"Library":"Chatsworth"
    ,"lat":51.677376
    ,"lng":-9.46744
    ,"Quantity":"Few ( < 10 digitized manuscripts)"
    ,"Website":"https://www.isos.dias.ie/master.html?http://www.isos.dias.ie/libraries/CHATSWORTH/english/?ref=http://www.isos.dias.ie/libraries/CHATSWORTH/"
  },
  {
     "Nation":"Italy"
    ,"City":"Firenze"
    ,"Library":"Biblioteca Medicea Laurenziana"
    ,"lat":43.774181
    ,"lng":11.254802
    ,"Quantity":"Unknown"
    ,"Website":"http://teca.bmlonline.it/TecaRicerca/index.jsp"
  },
  {
     "Nation":"Italy"
    ,"City":"Assisi"
    ,"Library":"Fondo Antico presso la Biblioteca del Sacro Convento"
    ,"lat":43.074426
    ,"lng":12.605824
    ,"Quantity":"More than half-thousand digitized manuscripts (between 500 and 1000)"
    ,"Website":"http://www.internetculturale.it/opencms/opencms/it/ricercaMag.jsp?searchType=avanzato&q=&opCha__creator=AND&channel__creator=&opCha__title=AND&channel__title=&opCha__contributor=AND&channel__contributor=&opCha__issuedYear=AND&channel__issuedYear_from=&channel__issuedYear_until=&opCha__publisher=AND&channel__publisher=&opCha__subject=AND&channel__subject=&opCha__language=AND+OR&opCha__typeTipo=AND+OR&opCha__typeLivello=AND&channel__typeLivello=&opCha__typeDigitale=AND+OR&opCha__location=AND&channel__location=&opCha__collectionText=AND&channel__collectionText=Mediatheca+Franciscana+-+Fondo+antico+del+Sacro+Convento+di+Assisi&opCha__agency=AND+OR&opCha__descSourceLevel2=AND+OR&imageField2.x=3&imageField2.y=12"
  },
  {
     "Nation":"Italy"
    ,"City":"Modena"
    ,"Library":"Biblioteca Estense Universitaria"
    ,"lat":44.648208
    ,"lng":10.921019
    ,"Quantity":"Many (Between 50 and 100 digitized manuscripts)"
    ,"Website":"http://bibliotecaestense.beniculturali.it/info/img/ebook.html"
  },
  {
     "Nation":"Italy"
    ,"City":"Perugia"
    ,"Library":"Biblioteca Digitale Augusta di Perugia"
    ,"lat":43.113851
    ,"lng":12.390454
    ,"Quantity":"Some (between 10 and 50 digitized manuscripts)"
    ,"Website":"http://augusta.alchimedia.com/indice.aspx?prov=div"
  },
  {
     "Nation":"Italy"
    ,"City":"Cesena"
    ,"Library":"Biblioteca Malatestiana"
    ,"lat":44.139089
    ,"lng":12.244332
    ,"Quantity":"Hundreds (between 100 and 500 digitized manuscripts)"
    ,"Website":"http://catalogoaperto.malatestiana.it/cgi-bin/wxis.exe/?IsisScript=Opcat/search2.xis"
  },
  {
     "Nation":"Italy"
    ,"City":"Mantua"
    ,"Library":"Biblioteca Teresiana"
    ,"lat":45.158031
    ,"lng":10.79731
    ,"Quantity":"Many (Between 50 and 100 digitized manuscripts)"
    ,"Website":"http://www.adacta.fi.it/digitalib/teresiana3/poli_gruppo.php?op=esplora_ric&cata=polironiani&gruppo=Manoscritti%20serie%20generale"
  },
  {
     "Nation":"Italy"
    ,"City":"Bologna"
    ,"Library":"Collegio di Spagna"
    ,"lat":44.490646
    ,"lng":11.338025
    ,"Quantity":"Hundreds (between 100 and 500 digitized manuscripts)"
    ,"Website":"http://irnerio.cirsfid.unibo.it/codex/"
  },
  {
     "Nation":"Italy"
    ,"City":"Florence"
    ,"Library":"Archivio dell'Opera\ndi Santa Maria del Fiore\ndi Firenze"
    ,"lat":43.773168
    ,"lng":11.258017
    ,"Quantity":"Many (Between 50 and 100 digitized manuscripts)"
    ,"Website":"http://archivio.operaduomo.fi.it/corali/"
  },
  {
     "Nation":"Japan"
    ,"City":"Tokyo"
    ,"Library":"Senshu University Library"
    ,"lat":35.697369
    ,"lng":139.75842
    ,"Quantity":"Few ( < 10 digitized manuscripts)"
    ,"Website":"http://www.senshu-u.ac.jp/libif/lib/gallery.html"
  },
  {
     "Nation":"Netherlands"
    ,"City":"Utrecht"
    ,"Library":"Utrecht University Library"
    ,"lat":52.083996
    ,"lng":5.172763
    ,"Quantity":"More than half-thousand digitized manuscripts (between 500 and 1000)"
    ,"Website":"http://objects.library.uu.nl/reader/index.php?obj=1874-26261&lan=en#page//73/50/49/7350497683016643926023021703543630924.jpg/mode/1up"
  },
  {
     "Nation":"Netherlands"
    ,"City":"The Hague"
    ,"Library":"De Nationale Bibliotheek van Nederland (Including  Museum Meermanno | Huis van het Boek)"
    ,"lat":52.081739
    ,"lng":4.327369
    ,"Quantity":"Hundreds (between 100 and 500 digitized manuscripts)"
    ,"Website":"http://manuscripts.kb.nl/"
  },
  {
     "Nation":"Netherlands"
    ,"City":"Leiden"
    ,"Library":"Leiden University Library"
    ,"lat":52.157513
    ,"lng":4.481256
    ,"Quantity":"Unknown"
    ,"Website":"https://disc.leidenuniv.nl/R/?func=search-advanced-go&file_format_code=WTP&language_code=WLN&LOCAL_BASE=GEN01-DISC&find_code1=CID&request1=1741"
  },
  {
     "Nation":"Netherlands"
    ,"City":"Utrecht"
    ,"Library":"Utrechts Archief"
    ,"lat":52.089057
    ,"lng":5.122844
    ,"Quantity":"Few ( < 10 digitized manuscripts)"
    ,"Website":"http://www.hetutrechtsarchief.nl/collectie/handschriften/buchelius"
  },
  {
     "Nation":"Netherlands"
    ,"City":"Utrecht"
    ,"Library":"Museum Catharijneconvent: Collectie en Bibliotheek"
    ,"lat":52.087208
    ,"lng":5.124153
    ,"Quantity":"Unknown"
    ,"Website":"http://adlib.catharijneconvent.nl/search.aspx"
  },
  {
     "Nation":"Netherlands"
    ,"City":"s-Heerenberg"
    ,"Library":"Huis Berg"
    ,"lat":51.874634
    ,"lng":6.241771
    ,"Quantity":"Unknown"
    ,"Website":"http://www.collectiegelderland.nl/zoeken/?q=manuscript&fq=instellingscode:0211"
  },
  {
     "Nation":"Netherlands"
    ,"City":"Leeuwarden"
    ,"Library":"Tresoar"
    ,"lat":53.203412
    ,"lng":5.790062
    ,"Quantity":"Unknown"
    ,"Website":"http://www.tresoar.nl/links/Pages/Digicollectie.aspx"
  },
  {
     "Nation":"New Zealand"
    ,"City":"Thorndon"
    ,"Library":"National Library of New Zealand"
    ,"lat":-41.274737
    ,"lng":174.777852
    ,"Quantity":"Unknown"
    ,"Website":"https://www.flickr.com/photos/nationallibrarynz_commons/sets/72157625795521244/with/5343925075/"
  },
  {
     "Nation":"New Zealand"
    ,"City":"Auckland"
    ,"Library":"Sir George Grey Special Collections"
    ,"lat":-36.851728
    ,"lng":174.765358
    ,"Quantity":"Few ( < 10 digitized manuscripts)"
    ,"Website":"http://www.aucklandlibraries.govt.nz/EN/heritage/sirgeorgegrey/manuscripts/Pages/manuscripts.aspx"
  },
  {
     "Nation":"Norway"
    ,"City":"Oslo"
    ,"Library":"Riksarkivet - National Archives"
    ,"lat":59.966973
    ,"lng":10.735958
    ,"Quantity":"Unknown"
    ,"Website":"https://fragments.app.uib.no/search/f?p=657:1:0::NO"
  },
  {
     "Nation":"Poland"
    ,"City":"Wroclaw"
    ,"Library":"Digital Library of Wroclaw University"
    ,"lat":51.108761
    ,"lng":17.028079
    ,"Quantity":"More than half-thousand digitized manuscripts (between 500 and 1000)"
    ,"Website":"http://www.bibliotekacyfrowa.pl/dlibra/collectiondescription?dirids=8"
  },
  {
     "Nation":"Portugal"
    ,"City":"Lisboa"
    ,"Library":"Biblioteca Nacional de Portugal"
    ,"lat":38.751018
    ,"lng":-9.15174
    ,"Quantity":"Unknown"
    ,"Website":"http://purl.pt/index/geral/date/PT/index.html"
  },
  {
     "Nation":"Romania"
    ,"City":"Cluj-Napoca"
    ,"Library":"Biblioteca Central Universitara Cluj"
    ,"lat":46.767016
    ,"lng":23.584872
    ,"Quantity":"Few ( < 10 digitized manuscripts)"
    ,"Website":"http://documente.bcucluj.ro/patrimoniu.html"
  },
  {
     "Nation":"Russia"
    ,"City":"Moscow"
    ,"Library":"Russian State Library (Ð Ð¾ÑÑÐ¸Ð¹ÑÐºÐ°Ñ Ð³Ð¾ÑÑƒÐ´Ð°Ñ€ÑÑ‚Ð²ÐµÐ½Ð½Ð°Ñ Ð±Ð¸Ð±Ð»Ð¸Ð¾Ñ‚ÐµÐºÐ°)"
    ,"lat":55.752161
    ,"lng":37.609043
    ,"Quantity":"Hundreds (between 100 and 500 digitized manuscripts)"
    ,"Website":"http://www.manuscripta-mediaevalia.de/?xdb_objtype!\"digitalisierteHandschriften\"%20r5a!\"Moskau\""
  },
  {
     "Nation":"Scotland"
    ,"City":"Edinburgh"
    ,"Library":"National Library of Scotland"
    ,"lat":55.948549
    ,"lng":-3.191873
    ,"Quantity":"Few ( < 10 digitized manuscripts)"
    ,"Website":"http://digital.nls.uk/gallery.cfm?cat=5"
  },
  {
     "Nation":"Scotland"
    ,"City":"Dirleton"
    ,"Library":"The Stair Society"
    ,"lat":56.047894
    ,"lng":-2.781698
    ,"Quantity":"Few ( < 10 digitized manuscripts)"
    ,"Website":"http://www.stairsociety.org/resources/manuscripts"
  },
  {
     "Nation":"Scotland"
    ,"City":"Glasgow"
    ,"Library":"University of Glasgow"
    ,"lat":55.873422
    ,"lng":-4.28907
    ,"Quantity":"Some (between 10 and 50 digitized manuscripts)"
    ,"Website":"http://www.gla.ac.uk/services/specialcollections/digitisedbooksmss/"
  },
  {
     "Nation":"Spain"
    ,"City":"Madrid"
    ,"Library":"National Library of Spain"
    ,"lat":40.423761
    ,"lng":-3.690232
    ,"Quantity":"Hundreds (between 100 and 500 digitized manuscripts)"
    ,"Website":"http://bdh.bne.es/bnesearch/Search.do"
  },
  {
     "Nation":"Spain"
    ,"City":"Madrid"
    ,"Library":"Real Biblioteca"
    ,"lat":40.417955
    ,"lng":-3.714312
    ,"Quantity":"Unknown"
    ,"Website":"http://www.realbiblioteca.es/"
  },
  {
     "Nation":"Spain"
    ,"City":"Valencia"
    ,"Library":"Universitat de Valencia"
    ,"lat":39.471577
    ,"lng":-0.372604
    ,"Quantity":"Hundreds (between 100 and 500 digitized manuscripts)"
    ,"Website":"http://roderic.uv.es/handle/10550/43"
  },
  {
     "Nation":"Spain"
    ,"City":"Barcelona"
    ,"Library":"Biblioteca Nacional de Catalunya"
    ,"lat":41.380464
    ,"lng":2.170341
    ,"Quantity":"Few ( < 10 digitized manuscripts)"
    ,"Website":"http://mdc.cbuc.cat/cdm/search/collection/manuscritBC/searchterm/manuscrits%20catalans%20--%20barcelona%20--%20s.%20xiv%20%3B%20croniques%20catalanes%20%3B%20corona%20catalanoaragonesa%20--%20historia%20--%20fonts/field/subjec/mode/all/conn/and/order/title/ad/asc"
  },
  {
     "Nation":"Spain"
    ,"City":"Madrid"
    ,"Library":"Biblioteca de la Fundacion Lazaro Galdiano"
    ,"lat":40.436865
    ,"lng":-3.68597
    ,"Quantity":"Many (Between 50 and 100 digitized manuscripts)"
    ,"Website":"http://www.bibliotecalazarogaldiano.es/mss/"
  },
  {
     "Nation":"Sweden"
    ,"City":"Lund"
    ,"Library":"Lund University Library"
    ,"lat":55.708951
    ,"lng":13.197349
    ,"Quantity":"Many (Between 50 and 100 digitized manuscripts)"
    ,"Website":"http://laurentius.ub.lu.se/index_by_idno.html"
  },
  {
     "Nation":"Sweden"
    ,"City":"Stockholm"
    ,"Library":"Kungliga Biblioteket"
    ,"lat":59.338163
    ,"lng":18.072134
    ,"Quantity":"Some (between 10 and 50 digitized manuscripts)"
    ,"Website":"http://www.kb.se/samlingarna/Handskrifter/Smakprov/"
  },
  {
     "Nation":"Sweden"
    ,"City":"Uppsala"
    ,"Library":"Uppsala Universitetsbibliotek"
    ,"lat":59.855188
    ,"lng":17.631549
    ,"Quantity":"Few ( < 10 digitized manuscripts)"
    ,"Website":"http://www.ub.uu.se/samlingar/handskrifter/vasterlandska-medeltidshandskrifter/?languageId=1"
  },
  {
     "Nation":"Switzerland"
    ,"City":"St. Gallen"
    ,"Library":"Stiftsbibliothek"
    ,"lat":47.423439
    ,"lng":9.3777
    ,"Quantity":"Hundreds (between 100 and 500 digitized manuscripts)"
    ,"Website":"http://www.e-codices.unifr.ch/en/list/csg"
  },
  {
     "Nation":"Switzerland"
    ,"City":"Cologny"
    ,"Library":"Fondation Martin Bodmer"
    ,"lat":46.215268
    ,"lng":6.180629
    ,"Quantity":"Hundreds (between 100 and 500 digitized manuscripts)"
    ,"Website":"http://www.e-codices.unifr.ch/en/list/fmb"
  },
  {
     "Nation":"Switzerland"
    ,"City":"Einsiedeln"
    ,"Library":"Stiftsbibliothek"
    ,"lat":47.128093
    ,"lng":8.744269
    ,"Quantity":"Many (Between 50 and 100 digitized manuscripts)"
    ,"Website":"http://www.e-codices.unifr.ch/en/list/sbe"
  },
  {
     "Nation":"Switzerland"
    ,"City":"Engelberg"
    ,"Library":"Stiftsbibliothek"
    ,"lat":46.819979
    ,"lng":8.406987
    ,"Quantity":"Many (Between 50 and 100 digitized manuscripts)"
    ,"Website":"http://www.e-codices.unifr.ch/en/list/bke"
  },
  {
     "Nation":"Switzerland"
    ,"City":"Zurich"
    ,"Library":"Zentralbibliothek"
    ,"lat":47.374074
    ,"lng":8.545021
    ,"Quantity":"Some (between 10 and 50 digitized manuscripts)"
    ,"Website":"http://www.e-codices.unifr.ch/en/list/zbz"
  },
  {
     "Nation":"Switzerland"
    ,"City":"Geneve"
    ,"Library":"Bibliotheque de Geneve"
    ,"lat":46.198816
    ,"lng":6.14508
    ,"Quantity":"Some (between 10 and 50 digitized manuscripts)"
    ,"Website":"http://www.e-codices.unifr.ch/en/list/bge"
  },
  {
     "Nation":"Switzerland"
    ,"City":"St. Gallen"
    ,"Library":"Kantonsbibliothek, Vadianische Sammlung"
    ,"lat":47.4291
    ,"lng":9.38194
    ,"Quantity":"Some (between 10 and 50 digitized manuscripts)"
    ,"Website":"http://www.e-codices.unifr.ch/en/list/vad"
  },
  {
     "Nation":"Switzerland"
    ,"City":"Frauenfeld"
    ,"Library":"Kantonsbibliothek Thurgau"
    ,"lat":47.556178
    ,"lng":8.89947
    ,"Quantity":"Some (between 10 and 50 digitized manuscripts)"
    ,"Website":"http://www.e-codices.unifr.ch/en/list/kbt"
  },
  {
     "Nation":"Switzerland"
    ,"City":"Schaffhausen"
    ,"Library":"Stadtbibliothek"
    ,"lat":47.695395
    ,"lng":8.63706
    ,"Quantity":"Some (between 10 and 50 digitized manuscripts)"
    ,"Website":"http://www.e-codices.unifr.ch/en/list/sbs"
  },
  {
     "Nation":"Switzerland"
    ,"City":"Private Collection. Location Uknown."
    ,"Library":"Utopia, armarium codicum bibliophilorum"
    ,"lat":47.36865
    ,"lng":9.471488
    ,"Quantity":"Some (between 10 and 50 digitized manuscripts)"
    ,"Website":"http://www.e-codices.unifr.ch/en/list/utp"
  },
  {
     "Nation":"Switzerland"
    ,"City":"Bern"
    ,"Library":"Burgerbibliothek"
    ,"lat":46.947167
    ,"lng":7.448377
    ,"Quantity":"Some (between 10 and 50 digitized manuscripts)"
    ,"Website":"http://www.e-codices.unifr.ch/en/list/bbb"
  },
  {
     "Nation":"Switzerland"
    ,"City":"Aarau"
    ,"Library":"Aargauer Kantonsbibliothek"
    ,"lat":47.388955
    ,"lng":8.045077
    ,"Quantity":"Some (between 10 and 50 digitized manuscripts)"
    ,"Website":"http://www.e-codices.unifr.ch/en/list/kba"
  },
  {
     "Nation":"Switzerland"
    ,"City":"Luzern"
    ,"Library":"Zentral- und Hochschulbibliothek"
    ,"lat":47.047332
    ,"lng":8.307468
    ,"Quantity":"Some (between 10 and 50 digitized manuscripts)"
    ,"Website":"http://www.e-codices.unifr.ch/en/list/zhl"
  },
  {
     "Nation":"Switzerland"
    ,"City":"Fribourg"
    ,"Library":"Bibliotheque cantonale et universitaire / Kantons- und Universitatsbibliothek"
    ,"lat":46.820073
    ,"lng":7.004371
    ,"Quantity":"Few ( < 10 digitized manuscripts)"
    ,"Website":"http://www.e-codices.unifr.ch/en/list/bcuf"
  },
  {
     "Nation":"Switzerland"
    ,"City":"Sarnen"
    ,"Library":"Benediktinerkollegium"
    ,"lat":46.891228
    ,"lng":8.24542
    ,"Quantity":"Few ( < 10 digitized manuscripts)"
    ,"Website":"http://www.e-codices.unifr.ch/en/list/bks"
  },
  {
     "Nation":"Switzerland"
    ,"City":"Solothurn"
    ,"Library":"Zentralbibliothek"
    ,"lat":47.209945
    ,"lng":7.529658
    ,"Quantity":"Few ( < 10 digitized manuscripts)"
    ,"Website":"http://www.e-codices.unifr.ch/en/list/zbs"
  },
  {
     "Nation":"Switzerland"
    ,"City":"St. Gallen"
    ,"Library":"Stiftsarchiv (Abtei Pfafers)"
    ,"lat":47.423505
    ,"lng":9.377647
    ,"Quantity":"Few ( < 10 digitized manuscripts)"
    ,"Website":"http://www.e-codices.unifr.ch/en/list/ssg"
  },
  {
     "Nation":"Switzerland"
    ,"City":"Wil"
    ,"Library":"Dominikanerinnenkloster St. Katharina"
    ,"lat":47.465409
    ,"lng":9.050683
    ,"Quantity":"Few ( < 10 digitized manuscripts)"
    ,"Website":"http://www.e-codices.unifr.ch/en/list/kaw"
  },
  {
     "Nation":"Switzerland"
    ,"City":"Basel"
    ,"Library":"Universitatsbibliothek"
    ,"lat":47.55901
    ,"lng":7.580962
    ,"Quantity":"Few ( < 10 digitized manuscripts)"
    ,"Website":"http://www.e-codices.unifr.ch/en/list/ubb"
  },
  {
     "Nation":"Switzerland"
    ,"City":"Fribourg"
    ,"Library":"Couvent des Cordeliers / Franziskanerkloster"
    ,"lat":46.807222
    ,"lng":7.160755
    ,"Quantity":"Few ( < 10 digitized manuscripts)"
    ,"Website":"http://www.e-codices.unifr.ch/en/list/fcc"
  },
  {
     "Nation":"Switzerland"
    ,"City":"Trogen"
    ,"Library":"Kantonsbibliothek Appenzell Ausserrhoden"
    ,"lat":47.443245
    ,"lng":8.539182
    ,"Quantity":"Few ( < 10 digitized manuscripts)"
    ,"Website":"http://www.e-codices.unifr.ch/en/list/cea"
  },
  {
     "Nation":"Switzerland"
    ,"City":"Fribourg"
    ,"Library":"Archives de l'Etat de Fribourg / Staatsarchiv Freiburg"
    ,"lat":46.798362
    ,"lng":7.149808
    ,"Quantity":"Few ( < 10 digitized manuscripts)"
    ,"Website":"http://www.e-codices.unifr.ch/en/list/aef"
  },
  {
     "Nation":"Switzerland"
    ,"City":"Aarau"
    ,"Library":"Staatsarchiv Aargau"
    ,"lat":47.388957
    ,"lng":8.049608
    ,"Quantity":"Few ( < 10 digitized manuscripts)"
    ,"Website":"http://www.e-codices.unifr.ch/en/list/saa"
  },
  {
     "Nation":"Switzerland"
    ,"City":"Sitten"
    ,"Library":"Archives du Chapitre/Kapitelsarchiv"
    ,"lat":46.233372
    ,"lng":7.358321
    ,"Quantity":"Few ( < 10 digitized manuscripts)"
    ,"Website":"http://www.e-codices.unifr.ch/en/list/acs"
  },
  {
     "Nation":"Switzerland"
    ,"City":"Neuchatel"
    ,"Library":"Bibliotheque publique et universitaire de Neuchatel"
    ,"lat":46.984896
    ,"lng":6.931266
    ,"Quantity":"Few ( < 10 digitized manuscripts)"
    ,"Website":"http://www.e-codices.unifr.ch/en/list/bpun"
  },
  {
     "Nation":"Switzerland"
    ,"City":"Schaffhausen"
    ,"Library":"Staatsarchiv"
    ,"lat":47.695832
    ,"lng":8.634199
    ,"Quantity":"Few ( < 10 digitized manuscripts)"
    ,"Website":"http://www.e-codices.unifr.ch/en/list/stash"
  },
  {
     "Nation":"Switzerland"
    ,"City":"Orselina"
    ,"Library":"Convento della Madonna del Sasso"
    ,"lat":46.175795
    ,"lng":8.79331
    ,"Quantity":"Few ( < 10 digitized manuscripts)"
    ,"Website":"http://www.e-codices.unifr.ch/en/list/oms"
  },
  {
     "Nation":"Switzerland"
    ,"City":"Lausanne"
    ,"Library":"Bibliotheque cantonale et universitaire de Lausanne"
    ,"lat":46.522546
    ,"lng":6.57926
    ,"Quantity":"Few ( < 10 digitized manuscripts)"
    ,"Website":"http://www.e-codices.unifr.ch/en/list/bcul"
  },
  {
     "Nation":"Switzerland"
    ,"City":"Solothurn"
    ,"Library":"Domschatz der St.-Ursen-Kathedrale"
    ,"lat":47.207648
    ,"lng":7.538777
    ,"Quantity":"Few ( < 10 digitized manuscripts)"
    ,"Website":"http://www.e-codices.unifr.ch/en/list/dss"
  },
  {
     "Nation":"Switzerland"
    ,"City":"Sitten"
    ,"Library":"Mediatheque du Valais"
    ,"lat":46.230705
    ,"lng":7.355588
    ,"Quantity":"Few ( < 10 digitized manuscripts)"
    ,"Website":"http://www.e-codices.unifr.ch/en/list/mvs"
  },
  {
     "Nation":"Switzerland"
    ,"City":"Porrentruy"
    ,"Library":"Bibliotheque cantonale jurassienne"
    ,"lat":46.891228
    ,"lng":7.07466
    ,"Quantity":"Few ( < 10 digitized manuscripts)"
    ,"Website":"http://www.e-codices.unifr.ch/en/list/bcj"
  },
  {
     "Nation":"Switzerland"
    ,"City":"Beromunster"
    ,"Library":"Stiftskirche St. Michael"
    ,"lat":47.206732
    ,"lng":8.193103
    ,"Quantity":"Few ( < 10 digitized manuscripts)"
    ,"Website":"http://www.e-codices.unifr.ch/en/list/sbb"
  },
  {
     "Nation":"Switzerland"
    ,"City":"Zofingen"
    ,"Library":"Stadtbibliothek"
    ,"lat":47.289202
    ,"lng":7.946039
    ,"Quantity":"Few ( < 10 digitized manuscripts)"
    ,"Website":"http://www.e-codices.unifr.ch/en/list/zos"
  },
  {
     "Nation":"Switzerland"
    ,"City":"Sarnen"
    ,"Library":"Staatsarchiv Obwalden"
    ,"lat":46.896117
    ,"lng":8.2451
    ,"Quantity":"Few ( < 10 digitized manuscripts)"
    ,"Website":"http://www.e-codices.unifr.ch/en/list/staow"
  },
  {
     "Nation":"Switzerland"
    ,"City":"Luzern"
    ,"Library":"Provinzarchiv Schweizer Kapuziner Luzern"
    ,"lat":47.061508
    ,"lng":8.313333
    ,"Quantity":"Few ( < 10 digitized manuscripts)"
    ,"Website":"http://www.e-codices.unifr.ch/en/list/pal"
  },
  {
     "Nation":"Switzerland"
    ,"City":"Bremgarten"
    ,"Library":"Stadtarchiv Bremgarten"
    ,"lat":47.350877
    ,"lng":8.343808
    ,"Quantity":"Few ( < 10 digitized manuscripts)"
    ,"Website":"http://www.e-codices.unifr.ch/en/list/stab"
  },
  {
     "Nation":"Switzerland"
    ,"City":"Schlatt"
    ,"Library":"Eisenbibliothek"
    ,"lat":47.68382
    ,"lng":8.677247
    ,"Quantity":"Few ( < 10 digitized manuscripts)"
    ,"Website":"http://www.e-codices.unifr.ch/en/list/ebs"
  },
  {
     "Nation":"Switzerland"
    ,"City":"Solothurn"
    ,"Library":"Domschatz der St. Ursen-Kathedrale"
    ,"lat":47.208117
    ,"lng":7.538777
    ,"Quantity":"Few ( < 10 digitized manuscripts)"
    ,"Website":"http://www.manuscripta-mediaevalia.de/?xdb_objtype!\"digitalisierteHandschriften\"%20r5a:*%20r5a!\"Solothurn\"%20r5b!\"Domschatz der St.-Ursen-Kathedrale|Solothurn\""
  },
  {
     "Nation":"United States of America"
    ,"City":"New York"
    ,"Library":"Columbia University, Rare Book and Manuscript Library"
    ,"lat":40.8064
    ,"lng":-73.9631
    ,"Quantity":"Thousands (more than 1000 digitized manuscripts)"
    ,"Website":"http://vm133.lib.berkeley.edu:8080/xtf22/search?rmode=digscript&smode=bid&bid=20&docsPerPage=30"
  },
  {
     "Nation":"United States of America"
    ,"City":"Philadelphia"
    ,"Library":"Free Library of Philadelphia, Rare Book Department"
    ,"lat":39.949353
    ,"lng":-75.173158
    ,"Quantity":"Thousands (more than 1000 digitized manuscripts)"
    ,"Website":"http://vm133.lib.berkeley.edu:8080/xtf22/search?rmode=digscript&smode=bid&bid=4&docsPerPage=30"
  },
  {
     "Nation":"United States of America"
    ,"City":"Berkeley"
    ,"Library":"University of California, Berkeley, Bancroft Library"
    ,"lat":37.87226
    ,"lng":-122.25885
    ,"Quantity":"More than half-thousand digitized manuscripts (between 500 and 1000)"
    ,"Website":"http://vm133.lib.berkeley.edu:8080/xtf22/search?rmode=digscript&smode=bid&bid=1&docsPerPage=30"
  },
  {
     "Nation":"United States of America"
    ,"City":"Philadelphia"
    ,"Library":"University of Pennsylvania, Rare Book and Manuscript Library"
    ,"lat":39.952739
    ,"lng":-75.193497
    ,"Quantity":"More than half-thousand digitized manuscripts (between 500 and 1000)"
    ,"Website":"http://vm133.lib.berkeley.edu:8080/xtf22/search?rmode=digscript&smode=bid&bid=27&docsPerPage=30"
  },
  {
     "Nation":"United States of America"
    ,"City":"Cambridge"
    ,"Library":"Harvard University, Houghton Library"
    ,"lat":42.373069
    ,"lng":-71.115919
    ,"Quantity":"Hundreds (between 100 and 500 digitized manuscripts)"
    ,"Website":"http://vm133.lib.berkeley.edu:8080/xtf22/search?rmode=digscript&smode=bid&bid=2&docsPerPage=30"
  },
  {
     "Nation":"United States of America"
    ,"City":"Baltimore"
    ,"Library":"The Walters Art Museum"
    ,"lat":39.296142
    ,"lng":-76.616119
    ,"Quantity":"Hundreds (between 100 and 500 digitized manuscripts)"
    ,"Website":"http://www.thedigitalwalters.org/01_ACCESS_WALTERS_MANUSCRIPTS.html"
  },
  {
     "Nation":"United States of America"
    ,"City":"New York"
    ,"Library":"The Metropolitan Museum of Art"
    ,"lat":40.780008
    ,"lng":-73.96305
    ,"Quantity":"Hundreds (between 100 and 500 digitized manuscripts)"
    ,"Website":"http://www.metmuseum.org/collection/the-collection-online/search?&what=Manuscripts&ft=*&ao=on&when=A.D.+1000-1400&pg=1"
  },
  {
     "Nation":"United States of America"
    ,"City":"Columbia"
    ,"Library":"University of Missouri, Ellis Library, Special Collections"
    ,"lat":38.944278
    ,"lng":-92.326472
    ,"Quantity":"Hundreds (between 100 and 500 digitized manuscripts)"
    ,"Website":"http://vm133.lib.berkeley.edu:8080/xtf22/search?rmode=digscript&smode=bid&bid=45&docsPerPage=30"
  },
  {
     "Nation":"United States of America"
    ,"City":"Lawrence"
    ,"Library":"University of Kansas, Kenneth Spencer Research Library, Special Collections"
    ,"lat":38.958922
    ,"lng":-95.247567
    ,"Quantity":"Hundreds (between 100 and 500 digitized manuscripts)"
    ,"Website":"http://vm133.lib.berkeley.edu:8080/xtf22/search?rmode=digscript&smode=bid&bid=30&docsPerPage=30"
  },
  {
     "Nation":"United States of America"
    ,"City":"Berkeley"
    ,"Library":"University of California, Berkeley, Robbins Collection"
    ,"lat":37.869972
    ,"lng":-122.253297
    ,"Quantity":"Hundreds (between 100 and 500 digitized manuscripts)"
    ,"Website":"http://vm133.lib.berkeley.edu:8080/xtf22/search?rmode=digscript&smode=bid&bid=11&docsPerPage=30"
  },
  {
     "Nation":"United States of America"
    ,"City":"New York"
    ,"Library":"New York Public Library, Manuscripts and Archives Division and the Spencer Collection"
    ,"lat":40.758703
    ,"lng":-73.978361
    ,"Quantity":"Hundreds (between 100 and 500 digitized manuscripts)"
    ,"Website":"http://vm133.lib.berkeley.edu:8080/xtf22/search?rmode=digscript&smode=bid&bid=41&docsPerPage=30"
  },
  {
     "Nation":"United States of America"
    ,"City":"Austin"
    ,"Library":"University of Texas at Austin, Harry Ransom Humanities Research Center"
    ,"lat":30.2843
    ,"lng":-97.7412
    ,"Quantity":"Hundreds (between 100 and 500 digitized manuscripts)"
    ,"Website":"http://vm133.lib.berkeley.edu:8080/xtf22/search?rmode=digscript&smode=bid&bid=37&docsPerPage=30"
  },
  {
     "Nation":"United States of America"
    ,"City":"New Haven"
    ,"Library":"Beinecke Rare Book & Manuscript Library"
    ,"lat":41.311636
    ,"lng":-72.927222
    ,"Quantity":"Hundreds (between 100 and 500 digitized manuscripts)"
    ,"Website":"http://brbl-dl.library.yale.edu/vufind/Search/Results?type=AllFields&filter[]=genre_facet:%22Manuscripts%22&daterange[]=publishDate&publishDatefrom=0&publishDateto=1550"
  },
  {
     "Nation":"United States of America"
    ,"City":"Notre Dame"
    ,"Library":"University of Notre Dame, Hesburgh Library, Special Collections"
    ,"lat":41.702683
    ,"lng":-86.234097
    ,"Quantity":"Hundreds (between 100 and 500 digitized manuscripts)"
    ,"Website":"http://vm133.lib.berkeley.edu:8080/xtf22/search?rmode=digscript&smode=bid&bid=14&docsPerPage=30"
  },
  {
     "Nation":"United States of America"
    ,"City":"New York"
    ,"Library":"New York Public Library,"
    ,"lat":40.758703
    ,"lng":-73.978361
    ,"Quantity":"Hundreds (between 100 and 500 digitized manuscripts)"
    ,"Website":"http://vm133.lib.berkeley.edu:8080/xtf22/search?rmode=digscript&smode=bid&bid=42&docsPerPage=30"
  },
  {
     "Nation":"United States of America"
    ,"City":"New York"
    ,"Library":"The Morgan Library & Museum"
    ,"lat":40.748667
    ,"lng":-73.982025
    ,"Quantity":"Hundreds (between 100 and 500 digitized manuscripts)"
    ,"Website":"http://utu.morganlibrary.org/index.cfm"
  },
  {
     "Nation":"United States of America"
    ,"City":"Bloomington"
    ,"Library":"Indiana University, The Lilly Library"
    ,"lat":39.167894
    ,"lng":-86.518975
    ,"Quantity":"Hundreds (between 100 and 500 digitized manuscripts)"
    ,"Website":"http://vm133.lib.berkeley.edu:8080/xtf22/search?rmode=digscript&smode=bid&bid=40&docsPerPage=30"
  },
  {
     "Nation":"United States of America"
    ,"City":"New York"
    ,"Library":"Fordham University, Walsh Library, Archives and Special Collections"
    ,"lat":40.861331
    ,"lng":-73.889247
    ,"Quantity":"Many (Between 50 and 100 digitized manuscripts)"
    ,"Website":"http://vm133.lib.berkeley.edu:8080/xtf22/search?rmode=digscript&smode=bid&bid=3&docsPerPage=30"
  },
  {
     "Nation":"United States of America"
    ,"City":"New York"
    ,"Library":"Columbia University, Burke Library at Union Theological Seminary"
    ,"lat":40.811269
    ,"lng":-73.961881
    ,"Quantity":"Many (Between 50 and 100 digitized manuscripts)"
    ,"Website":"http://vm133.lib.berkeley.edu:8080/xtf22/search?rmode=digscript&smode=bid&bid=22&docsPerPage=30"
  },
  {
     "Nation":"United States of America"
    ,"City":"New Brunswick"
    ,"Library":"Rutgers, The State University of New Jersey, Special Collections and University Archives"
    ,"lat":40.503858
    ,"lng":-74.452933
    ,"Quantity":"Many (Between 50 and 100 digitized manuscripts)"
    ,"Website":"http://vm133.lib.berkeley.edu:8080/xtf22/search?rmode=digscript&smode=bid&bid=6&docsPerPage=30"
  },
  {
     "Nation":"United States of America"
    ,"City":"Oberlin"
    ,"Library":"Oberlin College, Main Library, Special Collections"
    ,"lat":41.29325
    ,"lng":-82.222939
    ,"Quantity":"Some (between 10 and 50 digitized manuscripts)"
    ,"Website":"http://vm133.lib.berkeley.edu:8080/xtf22/search?rmode=digscript&smode=bid&bid=26&docsPerPage=30"
  },
  {
     "Nation":"United States of America"
    ,"City":"Berkeley"
    ,"Library":"University of California, Berkeley, Jean Gray Hargrove Music Library"
    ,"lat":37.870447
    ,"lng":-122.256128
    ,"Quantity":"Some (between 10 and 50 digitized manuscripts)"
    ,"Website":"http://vm133.lib.berkeley.edu:8080/xtf22/search?rmode=digscript&smode=bid&bid=8&docsPerPage=30"
  },
  {
     "Nation":"United States of America"
    ,"City":"Conception"
    ,"Library":"Conception Abbey and Seminary, Special Collection"
    ,"lat":40.241353
    ,"lng":-94.682606
    ,"Quantity":"Some (between 10 and 50 digitized manuscripts)"
    ,"Website":"http://vm133.lib.berkeley.edu:8080/xtf22/search?rmode=digscript&smode=bid&bid=15&docsPerPage=30"
  },
  {
     "Nation":"United States of America"
    ,"City":"San Francisco"
    ,"Library":"State of California, Sutro Collection"
    ,"lat":37.720914
    ,"lng":-122.477211
    ,"Quantity":"Some (between 10 and 50 digitized manuscripts)"
    ,"Website":"http://vm133.lib.berkeley.edu:8080/xtf22/search?rmode=digscript&smode=bid&bid=12&docsPerPage=30"
  },
  {
     "Nation":"United States of America"
    ,"City":"San Francisco"
    ,"Library":"San Francisco State University, J. Paul Leonard Library, De Bellis Collection"
    ,"lat":37.721894
    ,"lng":-122.479403
    ,"Quantity":"Some (between 10 and 50 digitized manuscripts)"
    ,"Website":"http://vm133.lib.berkeley.edu:8080/xtf22/search?rmode=digscript&smode=bid&bid=13&docsPerPage=30"
  },
  {
     "Nation":"United States of America"
    ,"City":"Davis"
    ,"Library":"University of California, Davis, Shields Library, Special Collections"
    ,"lat":38.539511
    ,"lng":-121.749672
    ,"Quantity":"Some (between 10 and 50 digitized manuscripts)"
    ,"Website":"http://vm133.lib.berkeley.edu:8080/xtf22/search?rmode=digscript&smode=bid&bid=7&docsPerPage=30"
  },
  {
     "Nation":"United States of America"
    ,"City":"San Francisco"
    ,"Library":"San Francisco State University, J. Paul Leonard Library, De Bellis Collection"
    ,"lat":37.721458
    ,"lng":-122.47805
    ,"Quantity":"Some (between 10 and 50 digitized manuscripts)"
    ,"Website":"http://vm133.lib.berkeley.edu:8080/xtf22/search?rmode=digscript&smode=bid&bid=13&docsPerPage=30"
  },
  {
     "Nation":"United States of America"
    ,"City":"New York"
    ,"Library":"The Library of The Jewish Theological Seminary"
    ,"lat":40.811742
    ,"lng":-73.960611
    ,"Quantity":"Some (between 10 and 50 digitized manuscripts)"
    ,"Website":"http://vm133.lib.berkeley.edu:8080/xtf22/search?rmode=digscript&smode=bid&bid=39&docsPerPage=30"
  },
  {
     "Nation":"United States of America"
    ,"City":"Pittsburgh"
    ,"Library":"University of Pittsburgh, Hillman Library, Special Collections"
    ,"lat":40.442603
    ,"lng":-79.954156
    ,"Quantity":"Some (between 10 and 50 digitized manuscripts)"
    ,"Website":"http://vm133.lib.berkeley.edu:8080/xtf22/search?rmode=digscript&smode=bid&bid=36&docsPerPage=30"
  },
  {
     "Nation":"United States of America"
    ,"City":"New York"
    ,"Library":"General Theological Seminary, Christoph Keller, Jr. Library, Special Collections"
    ,"lat":40.745931
    ,"lng":-74.003672
    ,"Quantity":"Some (between 10 and 50 digitized manuscripts)"
    ,"Website":"http://vm133.lib.berkeley.edu:8080/xtf22/search?rmode=digscript&smode=bid&bid=23&docsPerPage=30"
  },
  {
     "Nation":"United States of America"
    ,"City":"Baltimore"
    ,"Library":"Johns Hopkins University, Milton S. Eisenhower Library"
    ,"lat":39.3275798
    ,"lng":-76.6207579
    ,"Quantity":"Some (between 10 and 50 digitized manuscripts)"
    ,"Website":"http://vm133.lib.berkeley.edu:8080/xtf22/search?rmode=digscript&smode=bid&bid=33&docsPerPage=30"
  },
  {
     "Nation":"United States of America"
    ,"City":"New York"
    ,"Library":"Grolier Club"
    ,"lat":40.7613
    ,"lng":-73.971367
    ,"Quantity":"Some (between 10 and 50 digitized manuscripts)"
    ,"Website":"http://vm133.lib.berkeley.edu:8080/xtf22/search?rmode=digscript&smode=bid&bid=24&docsPerPage=30"
  },
  {
     "Nation":"United States of America"
    ,"City":"Baltimore"
    ,"Library":"Johns Hopkins University, John Work Garrett Library"
    ,"lat":39.348333
    ,"lng":-76.621111
    ,"Quantity":"Some (between 10 and 50 digitized manuscripts)"
    ,"Website":"http://vm133.lib.berkeley.edu:8080/xtf22/search?rmode=digscript&smode=bid&bid=31&docsPerPage=30"
  },
  {
     "Nation":"United States of America"
    ,"City":"Riverside"
    ,"Library":"University of California, Riverside, Tomas Rivera Library, Special Collections"
    ,"lat":33.972522
    ,"lng":-117.327439
    ,"Quantity":"Some (between 10 and 50 digitized manuscripts)"
    ,"Website":"http://vm133.lib.berkeley.edu:8080/xtf22/search?rmode=digscript&smode=bid&bid=10&docsPerPage=30"
  },
  {
     "Nation":"United States of America"
    ,"City":"Kansas City"
    ,"Library":"Nelson-Atkins Museum of Art, Spencer Art Reference Library"
    ,"lat":39.044817
    ,"lng":-94.580906
    ,"Quantity":"Few ( < 10 digitized manuscripts)"
    ,"Website":"http://vm133.lib.berkeley.edu:8080/xtf22/search?rmode=digscript&smode=bid&bid=46&docsPerPage=30"
  },
  {
     "Nation":"United States of America"
    ,"City":"New York"
    ,"Library":"New York University, Bobst Library, Special Collections"
    ,"lat":40.729467
    ,"lng":-73.997142
    ,"Quantity":"Few ( < 10 digitized manuscripts)"
    ,"Website":"http://vm133.lib.berkeley.edu:8080/xtf22/search?rmode=digscript&smode=bid&bid=25&docsPerPage=30"
  },
  {
     "Nation":"United States of America"
    ,"City":"Providence"
    ,"Library":"Providence Public Library, Special Collections"
    ,"lat":41.822067
    ,"lng":-71.416944
    ,"Quantity":"Few ( < 10 digitized manuscripts)"
    ,"Website":"http://vm133.lib.berkeley.edu:8080/xtf22/search?rmode=digscript&smode=bid&bid=28&docsPerPage=30"
  },
  {
     "Nation":"United States of America"
    ,"City":"New York"
    ,"Library":"Columbia University, Barnard College Library"
    ,"lat":40.809673
    ,"lng":-73.962814
    ,"Quantity":"Few ( < 10 digitized manuscripts)"
    ,"Website":"http://vm133.lib.berkeley.edu:8080/xtf22/search?rmode=digscript&smode=bid&bid=16&docsPerPage=30"
  },
  {
     "Nation":"United States of America"
    ,"City":"Sacramento"
    ,"Library":"State of California, California State Library"
    ,"lat":38.575783
    ,"lng":-121.496408
    ,"Quantity":"Few ( < 10 digitized manuscripts)"
    ,"Website":"http://vm133.lib.berkeley.edu:8080/xtf22/search?rmode=digscript&smode=bid&bid=9&docsPerPage=30"
  },
  {
     "Nation":"United States of America"
    ,"City":"New York"
    ,"Library":"Columbia University, Gabe M. Wiener Music and Arts Library"
    ,"lat":40.807764
    ,"lng":-73.962667
    ,"Quantity":"Few ( < 10 digitized manuscripts)"
    ,"Website":"http://vm133.lib.berkeley.edu:8080/xtf22/search?rmode=digscript&smode=bid&bid=19&docsPerPage=30"
  },
  {
     "Nation":"United States of America"
    ,"City":"New York"
    ,"Library":"Columbia University, Gottesman Libraries, Special Collections"
    ,"lat":40.809897
    ,"lng":-73.959928
    ,"Quantity":"Few ( < 10 digitized manuscripts)"
    ,"Website":"http://vm133.lib.berkeley.edu:8080/xtf22/search?rmode=digscript&smode=bid&bid=21&docsPerPage=30"
  },
  {
     "Nation":"United States of America"
    ,"City":"Baltimore"
    ,"Library":"Johns Hopkins University, George Peabody Library"
    ,"lat":39.297361
    ,"lng":-76.615
    ,"Quantity":"Few ( < 10 digitized manuscripts)"
    ,"Website":"http://vm133.lib.berkeley.edu:8080/xtf22/search?rmode=digscript&smode=bid&bid=32&docsPerPage=30"
  },
  {
     "Nation":"United States of America"
    ,"City":"Burlington"
    ,"Library":"University of Vermont, Bailey/Howe Library, Special Collections"
    ,"lat":44.475942
    ,"lng":-73.197636
    ,"Quantity":"Few ( < 10 digitized manuscripts)"
    ,"Website":"http://vm133.lib.berkeley.edu:8080/xtf22/search?rmode=digscript&smode=bid&bid=38&docsPerPage=30"
  },
  {
     "Nation":"United States of America"
    ,"City":"Baltimore"
    ,"Library":"Johns Hopkins University, Institute of the History of Medicine, Historical Collection"
    ,"lat":39.299053
    ,"lng":-76.590289
    ,"Quantity":"Few ( < 10 digitized manuscripts)"
    ,"Website":"http://vm133.lib.berkeley.edu:8080/xtf22/search?rmode=digscript&smode=bid&bid=34&docsPerPage=30"
  },
  {
     "Nation":"United States of America"
    ,"City":"New York"
    ,"Library":"Columbia University, Arthur W. Diamond Law Library"
    ,"lat":40.807128
    ,"lng":-73.960283
    ,"Quantity":"Few ( < 10 digitized manuscripts)"
    ,"Website":"http://vm133.lib.berkeley.edu:8080/xtf22/search?rmode=digscript&smode=bid&bid=17&docsPerPage=30"
  },
  {
     "Nation":"United States of America"
    ,"City":"New York"
    ,"Library":"City College of New York, Morris R. Cohen Library, Archives and Special Collections"
    ,"lat":40.823275
    ,"lng":-73.947739
    ,"Quantity":"Few ( < 10 digitized manuscripts)"
    ,"Website":"http://vm133.lib.berkeley.edu:8080/xtf22/search?rmode=digscript&smode=bid&bid=5&docsPerPage=30"
  },
  {
     "Nation":"United States of America"
    ,"City":"New York"
    ,"Library":"Columbia University, Augustus C. Long Health Sciences Library"
    ,"lat":40.823275
    ,"lng":-73.947739
    ,"Quantity":"Few ( < 10 digitized manuscripts)"
    ,"Website":"http://vm133.lib.berkeley.edu:8080/xtf22/search?rmode=digscript&smode=bid&bid=18&docsPerPage=30"
  },
  {
     "Nation":"United States of America"
    ,"City":"Gambier"
    ,"Library":"Greenslade Archives and Special Collections"
    ,"lat":40.376809
    ,"lng":-82.39659
    ,"Quantity":"Unknown"
    ,"Website":"https://www.flickr.com/photos/kenyon_special_collections/sets/72157627655737919/"
  },
  {
     "Nation":"United States of America"
    ,"City":"Chicago"
    ,"Library":"University of Chicago Library"
    ,"lat":41.79218
    ,"lng":-87.599934
    ,"Quantity":"Many (Between 50 and 100 digitized manuscripts)"
    ,"Website":"http://goodspeed.lib.uchicago.edu/list/index.php?list=listscanned"
  },
  {
     "Nation":"United States of America"
    ,"City":"Stanford"
    ,"Library":"Stanford University Libraries"
    ,"lat":37.427474
    ,"lng":-122.169719
    ,"Quantity":"Hundreds (between 100 and 500 digitized manuscripts)"
    ,"Website":"http://collections.stanford.edu/images/bin/search/advanced/process?sort=title&clauseMapped(collectionBrowse)=Medieval+Manuscripts+and+Fragments&browse=1"
  },
  {
     "Nation":"United States of America"
    ,"City":"Los Angeles"
    ,"Library":"The J. Paul Getty Museum"
    ,"lat":34.077174
    ,"lng":-118.473942
    ,"Quantity":"Hundreds (between 100 and 500 digitized manuscripts)"
    ,"Website":"http://www.getty.edu/art/collection/"
  },
  {
     "Nation":"United States of America"
    ,"City":"Iowa City"
    ,"Library":"Special Collections, University of Iowa Libraries"
    ,"lat":41.659395
    ,"lng":-91.538411
    ,"Quantity":"Many (Between 50 and 100 digitized manuscripts)"
    ,"Website":"http://digital.lib.uiowa.edu/"
  },
  {
     "Nation":"Vatican"
    ,"City":"Vatican City"
    ,"Library":"Biblioteca Apostolica Vaticana"
    ,"lat":41.903038
    ,"lng":12.454465
    ,"Quantity":"More than half-thousand digitized manuscripts (between 500 and 1000)"
    ,"Website":"http://www.mss.vatlib.it/gui/scan/link.jsp"
  },